id,name,address1,address2,latitude,longitude,extra_info,is_open,city
122,Shell HELIX,"пр. Республики, д. 52/1","между Налоговым комитетом  и магазином ""Sulpak""",51.1819,71.4235,,True,Нур-Султан
228,Bizzon Workshop,"пр. Республики, д. 84","уг. ул. Гёте, возле АЗС ""Аскар"", вдоль теплотрассы, первый поворот направо, р-н старого ж/д вокзала",51.1907,71.4216,,True,Нур-Султан
112,Вираж Сервис,"пр. Тлендиева, д. 3","р-н Астраханской трассы, возле МЧС Сарыаркинского района",51.1766,71.3884,,True,Нур-Султан
300,Кулагер,"ул. Акжол, д. 27/2","в здании ТД Арзан, возле ТД Астыкжан",51.1833,71.4519,,True,Нур-Султан
237,SATURN AUTO,"ул. Куйши Дина, д. 29","бывшее здание ЦОНа, напротив церкви, возле школы ""Мирас""",51.1511,71.484,,True,Нур-Султан
58,Klakson,"ул. Майлина, д. 17",за ТЦ Жайлы,51.145725,71.475602,,True,Нур-Султан
306,СТО Bastion,"ул. Омарова, д. 166","пересечение пр. Абая и ул. Сырдария, возле ресторана ""Ханшайым""",51.1718,71.4459,,True,Нур-Султан
295,SIMEX,"ул. Цветочная, д. 121А","уг. ул. Акан Сери, ближайшее СТО к СпецЦОНу",51.1772,71.368,,True,Нур-Султан
