id,address1,address2,latitude,longitude,has_cardomat,is_open,workload,city
136,"пр. Независимости, д. 1","уг. ул. Астана, ост. ""Дворец cпорта""",49.9561,82.6137,True,True,"{'text': 'Ожидание свыше 30 мин', 'type': 'high'}",Усть-Каменогорск
139,"пр. Независимости, д. 17","уг. ул. Клинка, в р-не Площади Независимости",50.3368366351039,83.5048636441796,False,True,"{'text': 'Ожидание свыше 30 мин', 'type': 'high'}",Риддер
132,"ул. Антона Чехова, д. 46","уг. ул. Тохтарова, в р-не парка им. Кирова",49.9487,82.6205,True,True,"{'text': 'Ожидание свыше 30 мин', 'type': 'high'}",Усть-Каменогорск
135,"ул. Виноградова, д. 12","уг. ул. Грузинской, возле гастронома Ивушка",49.963569,82.58647,True,True,"{'text': 'Ожидание до 10 мин', 'type': 'low'}",Усть-Каменогорск
134,"ул. Казахстан, д. 65","уг. ул. Кабанбай батыра, р-н Центрального рынка",49.9516484935667,82.6299315753521,True,True,"{'text': 'Ожидание до 10 мин', 'type': 'low'}",Усть-Каменогорск
133,"ул. Крылова, д. 73","уг. ул. Ауэзова, ост. ""Колос""",49.946304380634,82.6125457129194,True,True,"{'text': 'Ожидание до 10 мин', 'type': 'low'}",Усть-Каменогорск
140,"ул. Советская, д. 38","уг. ул. Первомайской, напротив Центр. рынка, в здании партии Нур-Отан",49.722713,84.270438,False,True,"{'text': 'Ожидание до 10 мин', 'type': 'low'}",Алтай
