id,address1,address2,latitude,longitude,status,city
42308,"3 мкр-н, д. 7/1","район Центрально рынка, на автобусной остановке ""Арбат""",50.3299,83.4982,"{'is_working': True, 'additional_info': []}",Риддер
42310,"4 мкр-н, д. 11",ТД КАЗАХСТАН,50.3259,83.5076,"{'is_working': True, 'additional_info': []}",Риддер
111996,"бульвар Гагарина, д. 18","(магазин Рахат), 1 этаж",49.9728701600563,82.5825832209008,"{'is_working': True, 'additional_info': []}",Усть-Каменогорск
112067,"бульвар Гагарина, д. 19/1","магазин ""Алтын, во дворе, возле стоматологической клиники ""Шыгыс-Дент""",49.9692,82.5834,"{'is_working': True, 'additional_info': []}",Усть-Каменогорск
112025,"бульвар Гагарина, д. 22","Аптека, уг. ул. Микояна",49.9701,82.5821,"{'is_working': True, 'additional_info': []}",Усть-Каменогорск
112127,"бульвар Гагарина, д. 24",уг. ул. Грузинская,49.9692,82.5802,"{'is_working': True, 'additional_info': []}",Усть-Каменогорск
112041,"мкр. КШТ, пр. Сатпаева, д. 22",уг. ул. Байбатчина,49.905,82.6252,"{'is_working': True, 'additional_info': []}",Усть-Каменогорск
112081,"набережная им. Славского, д. 24","уг. пр. Ауэзова, (магазин Прогресс), возле ресторана ""Караван""",49.9444653960796,82.6076689444464,"{'is_working': True, 'additional_info': []}",Усть-Каменогорск
112037,"набережная им. Славского, д. 30","р-н Стрелка, бывш. комп-ый магазин ""СИГМА""",49.9447593739255,82.6042139656058,"{'is_working': True, 'additional_info': []}",Усть-Каменогорск
41377,"набережная им. Славского, д. 48/2","возле дет. сада ""Айгөлек""",49.9479,82.5948,"{'is_working': True, 'additional_info': []}",Усть-Каменогорск
112010,"пос. Ахмирово, ул. Строителей, д. 12/1","напротив АЗС ""КазМунайГаз""",49.9488487280924,82.5387322207342,"{'is_working': True, 'additional_info': []}",Усть-Каменогорск
115421,"пос. Глубокое, ул. Поповича, д. 19","напротив автобусной остановки ""Поповича""",50.1507,82.3136,"{'is_working': True, 'additional_info': []}",Усть-Каменогорск
117136,"пос. им. Кайсенова, уч-к 11","на Центральной площади, напротив Акимата",49.876,82.4878,"{'is_working': True, 'additional_info': []}",Усть-Каменогорск
111997,"пос. Куленовка, ул. Энтузиастов, д. 59","(магазин Фархат и К), при въезде в поселок",49.887150591698,82.640847118836,"{'is_working': True, 'additional_info': []}",Усть-Каменогорск
112128,"пос. Меновное, ул. Садовая, д. 10/1",уг. ул. М.Горького,49.9365458075934,82.5734428994745,"{'is_working': True, 'additional_info': []}",Усть-Каменогорск
41319,"пр. Абая, д. 1/1",уг. пр. Нурсултана Назарбаева,49.9571,82.6139,"{'is_working': True, 'additional_info': []}",Усть-Каменогорск
112063,"пр. Абая, д. 185/2","(Аптека), справа от въезда на оптовый рынок ""Дина""",49.9905,82.6454,"{'is_working': True, 'additional_info': []}",Усть-Каменогорск
42478,"пр. Абая, д. 203/3","АвтоЦОН, на территории бывшего Авторынка, напротив Авто-центра ""Вираж""",49.9994,82.6596,"{'is_working': True, 'additional_info': []}",Усть-Каменогорск
109651,"пр. Абая, д. 5",(магазин) возле ТЦ Старт и Блюз Востока,49.9602276006902,82.6141210272457,"{'is_working': True, 'additional_info': []}",Усть-Каменогорск
42351,"пр. Абая, д. 9/1","рядом с гостиницей ""Турист""",49.9622,82.6142,"{'is_working': True, 'additional_info': []}",Усть-Каменогорск
41265,"пр. Ауэзова, д. 35","остановка ""Ауэзова"", напротив магазина ""VITAМИР""",49.9499,82.6141,"{'is_working': True, 'additional_info': []}",Усть-Каменогорск
112074,"пр. Ауэзова, д. 43","уг. ул. Победы, напротив ТД Император",49.951426467239,82.6151826519505,"{'is_working': True, 'additional_info': []}",Усть-Каменогорск
42099,"пр. Казыбек би, д. 42","остановка ""Карл Маркс""",49.8992,82.6041,"{'is_working': True, 'additional_info': []}",Усть-Каменогорск
109964,"пр. Независимости, 17","уг. ул. Клинка, в р-н Площади независимости",50.336689,83.50481,"{'is_working': True, 'additional_info': []}",Риддер
113423,"пр. Независимости, 1, кв. 61, 62","уг. ул. Астана, ост. Дворец Спорта",49.9558,82.613699,"{'is_working': True, 'additional_info': []}",Усть-Каменогорск
110071,"пр. Независимости, 1, кв. 61, 62","уг. ул. Астана, ост. Дворец Спорта",49.9558,82.613699,"{'is_working': True, 'additional_info': []}",Усть-Каменогорск
109858,"пр. Независимости, 1, кв. 61, 62","уг. ул. Астана, ост. Дворец Спорта",49.9558,82.613699,"{'is_working': True, 'additional_info': []}",Усть-Каменогорск
42309,"пр. Независимости, д. 15/1",рядом с отделением Kaspi Bank,50.3373,83.5052,"{'is_working': True, 'additional_info': []}",Усть-Каменогорск
112082,"пр. Нурсултана Назарбаева, д. 1","напротив автобусной остановки ""Дворец спорта""",49.9556,82.614,"{'is_working': True, 'additional_info': []}",Усть-Каменогорск
112095,"пр. Нурсултана Назарбаева, д. 11","район площади Ушанова, напротив ресторана ""Вояж""",49.9585,82.6068,"{'is_working': True, 'additional_info': []}",Усть-Каменогорск
42271,"пр. Нурсултана Назарбаева, д. 128","СТО ""АВТО ШАХ""",49.9852,82.5743,"{'is_working': True, 'additional_info': []}",Усть-Каменогорск
42246,"пр. Нурсултана Назарбаева, д. 20","на автобусной остановке ""пл. Ушанова""",49.96,82.6053,"{'is_working': True, 'additional_info': []}",Усть-Каменогорск
112027,"пр. Нурсултана Назарбаева, д. 27/1","автобусная остановка ""Гастроном на 45-ой""",49.9648,82.598,"{'is_working': True, 'additional_info': []}",Усть-Каменогорск
41378,"пр. Нурсултана Назарбаева, д. 37","напротив парка ""Казахстан""",49.9679,82.5949,"{'is_working': True, 'additional_info': []}",Усть-Каменогорск
112102,"пр. Нурсултана Назарбаева, д. 4/2","остановка ""Дворец Спорта"", возле магазина ""КИД ПАРАД""",49.9574684722589,82.6118741278554,"{'is_working': True, 'additional_info': []}",Усть-Каменогорск
112132,"пр. Нурсултана Назарбаева, д. 45",уг. ул. Гагарина,49.973,82.5891,"{'is_working': True, 'additional_info': []}",Усть-Каменогорск
42618,"пр. Нурсултана Назарбаева, д. 54","уг. ул. Образцовая, автобусная остановка ""Казахстан""",49.9697,82.5939,"{'is_working': True, 'additional_info': []}",Усть-Каменогорск
41654,"пр. Нурсултана Назарбаева, д. 61А","автобусная остановка ""Валентина"", напротив КАСУ",49.9777,82.5826,"{'is_working': True, 'additional_info': []}",Усть-Каменогорск
41373,"пр. Нурсултана Назарбаева, д. 70","автобусная остановка ""ДКМ""",49.9742,82.5882,"{'is_working': True, 'additional_info': []}",Усть-Каменогорск
112088,"пр. Нурсултана Назарбаева, д. 8/1","ТЦ Оптовка, р-н Дворца спорта",49.9588,82.6103,"{'is_working': True, 'additional_info': []}",Усть-Каменогорск
112135,"пр. Нурсултана Назарбаева, д. 8/1","ТЦ Оптовка, р-н Дворца спорта",49.9589,82.61,"{'is_working': True, 'additional_info': []}",Усть-Каменогорск
112064,"пр. Нурсултана Назарбаева, д. 84",напротив ТД Валентина,49.9776,82.5843,"{'is_working': True, 'additional_info': []}",Усть-Каменогорск
112098,"пр. Нурсултана Назарбаева, д. 87","район Нефтебазы, за рынком ""Венера""",49.9856631515145,82.5717499411386,"{'is_working': True, 'additional_info': []}",Усть-Каменогорск
112139,"пр. Нурсултана Назарбаева, д. 87/1","автобусная остановка ""Электротовары""",49.9858,82.5724,"{'is_working': True, 'additional_info': []}",Усть-Каменогорск
112093,"пр. Сатпаева, д. 16","автобусная остановка пр. Сатпаева, рядом с пешеходным переходом",49.9026,82.6238,"{'is_working': True, 'additional_info': []}",Усть-Каменогорск
109502,"пр. Сатпаева, д. 4",(магазин Мариям),49.8969683333333,82.6209266666667,"{'is_working': True, 'additional_info': []}",Усть-Каменогорск
112122,"пр. Сатпаева, д. 84","торговый павильон Fresh Market, 1 этаж, банкоматная зона",49.9225969852853,82.6213627221854,"{'is_working': True, 'additional_info': []}",Усть-Каменогорск
112070,"пр. Шакарима, д. 143/1","продуктовый магазин, в р-не магазина ""Ромашка""",49.9686,82.6049,"{'is_working': True, 'additional_info': []}",Усть-Каменогорск
112051,"пр. Шакарима, д. 155","уг. ул. Белинского, продуктовый магазин, напротив БСМП",49.971164443493,82.5986742202616,"{'is_working': True, 'additional_info': ['Не печатает чек']}",Усть-Каменогорск
112056,"пр. Шакарима, д. 162","на территории рынка ""ГАЛИТ""",49.9728227744004,82.5957256602124,"{'is_working': True, 'additional_info': []}",Усть-Каменогорск
109219,пр. Шакарима д. 171,"возле магазина ""Элегант"", напротив ДКМ",49.974,82.5914,"{'is_working': True, 'additional_info': []}",Усть-Каменогорск
40975,"пр. Шакарима, д. 4","напротив ДВД ВКО, вход со двора",49.9645,82.6264,"{'is_working': True, 'additional_info': []}",Усть-Каменогорск
112116,"пр. Шакарима, д. 91","продуктовый магазин, напротив СШ №16",49.9671,82.6094,"{'is_working': True, 'additional_info': []}",Усть-Каменогорск
42620,"с. Белоусовка, ул. Центральная, д. 54","напротив Акимата, рядом отделение Полиции",50.1271,82.5226,"{'is_working': True, 'additional_info': []}",Усть-Каменогорск
115419,"с. Белоусовка, ул. Юбилейная, д. 2",уг. ул. Жукова,50.1376,82.5288,"{'is_working': True, 'additional_info': []}",Усть-Каменогорск
115418,"с. Белоусовка, ул. Юбилейная, д. 20А","уг. ул. Жукова, (магазин Самал), напротив больницы",50.1383,82.5325,"{'is_working': True, 'additional_info': []}",Усть-Каменогорск
109337,"с. Глубокое, ул. Поповича, д. 19",,50.151,82.3136,"{'is_working': True, 'additional_info': []}",Усть-Каменогорск
109685,"с. Глубокое, ул. Поповича, д. 21",,50.1516,82.3137,"{'is_working': True, 'additional_info': []}",Усть-Каменогорск
42409,"с. Касыма Кайсенова, д. 11",напротив Акимата,49.8761,82.4877,"{'is_working': True, 'additional_info': []}",Усть-Каменогорск
112115,"с. Ново-Ахмирово, д. 3",на территории военного городка,49.9371,82.5,"{'is_working': True, 'additional_info': []}",Усть-Каменогорск
117165,"ул. 30-й Гвардейской дивизии, д. 38",рядом с центральным корпусом ВКГУ,49.9615,82.593,"{'is_working': True, 'additional_info': []}",Усть-Каменогорск
109501,"ул. Абая, д. 1/4","магазин ""Фудмаркет""",49.9585,82.6142,"{'is_working': True, 'additional_info': []}",Усть-Каменогорск
112150,"ул. Абая, д. 1/4","напротив автовокзала, рвозле рынка ""Заречный""",49.95848,82.6141333333333,"{'is_working': True, 'additional_info': []}",Усть-Каменогорск
112001,"ул. Александра Протозанова, д. 17","за Орловскими банями, по дороге в ЦОН",49.9571548470952,82.6301241746008,"{'is_working': True, 'additional_info': []}",Усть-Каменогорск
112019,"ул. Алматинская, д. 58","(Магазин), р-н Аптеки №45, напротив СШ №20",49.967081859077,82.5998695834416,"{'is_working': True, 'additional_info': []}",Усть-Каменогорск
40477,"ул. Амире Кашаубаева, д. 4","магазин ""Антон"", рядом с площадью Ушанова, за кулинарией ""ВОЯЖ""",49.9577,82.6053,"{'is_working': True, 'additional_info': []}",Усть-Каменогорск
112013,"ул. Амурская, д. 10","(Магазин), возле СШ №37",49.9642410867358,82.5958153090489,"{'is_working': True, 'additional_info': []}",Усть-Каменогорск
112152,"ул. Антона Чехова, д. 43","магазин-кафе ""Корона"", напротив кинотеатра ""Эхо""",49.9501,82.6212,"{'is_working': True, 'additional_info': []}",Усть-Каменогорск
112117,"ул. Астаны, д. 8","(Магазин), за гостиницей ""Shine River""",49.9556,82.6114,"{'is_working': True, 'additional_info': []}",Усть-Каменогорск
112146,"ул. Ауэзова, д. 13","возле гастранома ""Колос"", напротив гостиницы ""Иртыш""",49.9485,82.6127,"{'is_working': True, 'additional_info': []}",Усть-Каменогорск
112066,"ул. Ауэзова, д. 28","ТД Император, главный вход, банкоматная зона",49.9508106047888,82.6164752652941,"{'is_working': True, 'additional_info': []}",Усть-Каменогорск
112083,"ул. Бажова, д. 1","(Аптека), возле кафе ""Мимино""",49.9688267929901,82.6177211065323,"{'is_working': True, 'additional_info': []}",Усть-Каменогорск
40483,"ул. Бажова, д. 110","ТРК ADK, напротив Салона мебели",49.9849,82.5923,"{'is_working': True, 'additional_info': []}",Усть-Каменогорск
112068,"ул. Бажова, д. 331/2","(Аптека), р-н ""Прохладная"", возле магазина ""Самал""",50.0106798301213,82.5524003214257,"{'is_working': True, 'additional_info': []}",Усть-Каменогорск
112048,"ул. Бажова, д. 331/2","(Аптека), р-н ""Прохладная"", возле магазина ""Самал""",50.0106798301213,82.5524003214257,"{'is_working': True, 'additional_info': []}",Усть-Каменогорск
112080,"ул. Бажова, д. 497/1",р-н Аэропорта,50.0224,82.5029,"{'is_working': True, 'additional_info': []}",Усть-Каменогорск
112015,"ул. Бажова, д. 85","(Магазин), напротив ""Аксай-нан"" и магазина ""Тормозок""",49.9815663981328,82.5961442644422,"{'is_working': True, 'additional_info': ['Не печатает чек']}",Усть-Каменогорск
112084,"ул. Бурова, д. 24 А","магазин ""Адинай"", за аптекой ""Гедеон Рихтер""",49.9541,82.6467,"{'is_working': True, 'additional_info': []}",Усть-Каменогорск
40780,"ул. Бурова, д. 29","автобусная остановка ""Поликлиника""",49.9529,82.6427,"{'is_working': True, 'additional_info': []}",Усть-Каменогорск
41318,"ул. Бурова, д. 39/2","возле дет. сада ""Октябренок""",49.9546,82.6386,"{'is_working': True, 'additional_info': []}",Усть-Каменогорск
112030,"ул. Бурова, д. 61/1","(Аптека), м/у Поликлинникой №2 и Дет. стоматологией",49.9551959084938,82.643978264893,"{'is_working': True, 'additional_info': []}",Усть-Каменогорск
112140,"ул. Бурова, д. 9","уг. ул. Кабанбай батыра, за гастрономом ""Волна""",49.9504,82.6405,"{'is_working': True, 'additional_info': []}",Усть-Каменогорск
109857,"ул. Виноградова, 12","уг. ул. Грузинская, рядом с гастраномом ""Ивушка""",49.963569,82.58647,"{'is_working': True, 'additional_info': []}",Усть-Каменогорск
110256,"ул. Виноградова, 12","уг. ул. Грузинская, рядом с гастраномом ""Ивушка""",49.963569,82.58647,"{'is_working': True, 'additional_info': []}",Усть-Каменогорск
41320,"ул. Виноградова, д. 15","автобусная остановка ""Ивушка""",49.9639,82.5857,"{'is_working': True, 'additional_info': []}",Усть-Каменогорск
112026,"ул. Виноградова, д. 17","(аптека Интерны), напротив рынка Дос-Нар",49.9645280511729,82.5857361307128,"{'is_working': True, 'additional_info': []}",Усть-Каменогорск
112075,"ул. Виноградова, д. 17 А","рынок ""Дос-Нар"", центральный вход, банкоматная зона",49.9654771818321,82.5879306334664,"{'is_working': True, 'additional_info': []}",Усть-Каменогорск
109218,"ул. Виноградова, д. 17А","рынок ""Дос-Нар"", центральный вход, банкоматная зона",49.9654,82.5881,"{'is_working': True, 'additional_info': []}",Усть-Каменогорск
110711,"ул. Виноградова, д. 29",уг. ул. Амурская,49.9668,82.5913,"{'is_working': True, 'additional_info': []}",Усть-Каменогорск
112052,"ул. Вострецова, д. 6","(магазин Экспресс), р-н Защита",50.009601229625,82.5690984887567,"{'is_working': True, 'additional_info': []}",Усть-Каменогорск
112058,"ул. Вострецова, д. 8","р-н Зазита, напротив рынка ""Экспресс""",50.0097199267276,82.5700685800292,"{'is_working': True, 'additional_info': []}",Усть-Каменогорск
112008,"ул. Геологическая, д. 10",р-н Аблакетки,49.9327123133364,82.6719020257946,"{'is_working': True, 'additional_info': []}",Усть-Каменогорск
42248,"ул. Гоголя, д. 34","район ""ДКМ"", рядом с ""Казпочтой""",49.9749,82.5902,"{'is_working': True, 'additional_info': []}",Усть-Каменогорск
41372,"ул. Гоголя, д. 9",на пересечении улиц Гоголя и Краснознаменной,49.9785,82.5979,"{'is_working': True, 'additional_info': []}",Усть-Каменогорск
112059,"ул. Добролюбова, д. 36","(Магазин), во дворах",49.9775091085368,82.5852889418513,"{'is_working': True, 'additional_info': []}",Усть-Каменогорск
112137,"ул. Добролюбова, д. 47",уг. ул. Микояна,49.9729,82.58,"{'is_working': True, 'additional_info': []}",Усть-Каменогорск
109674,"ул. Достоевского, д. 6","рынок ""Заречный"", крытый павильон, центральный вход",49.9586,82.6117,"{'is_working': True, 'additional_info': []}",Усть-Каменогорск
112047,"ул. Достоевского, д. 6","рынок ""Заречный"", крытый павильон, рядом с мясным отделом",49.9583690121555,82.6122087562949,"{'is_working': True, 'additional_info': []}",Усть-Каменогорск
112033,"ул. Егорова, д. 6","супермаркет ""Титан"", вино-водочный отдел",50.0271,82.7401,"{'is_working': True, 'additional_info': []}",Усть-Каменогорск
112151,"ул. Жастар, д. 29/2",возле СШ №47,49.9061,82.6114,"{'is_working': True, 'additional_info': []}",Усть-Каменогорск
112057,"ул. Железнодорожная, д. 112",(ТЦ),49.9644823948973,82.6427246855567,"{'is_working': True, 'additional_info': []}",Усть-Каменогорск
112045,"ул. Жибек Жолы, д. 1","супермаркет АРЗАН, на выходе, возле кассовой зоны",49.9295,82.6127,"{'is_working': True, 'additional_info': []}",Усть-Каменогорск
112060,"ул. Кабанбай батыра, д. 120","магазин ""Пивная лавка"", напротив рынка ""Алтай""",49.9501,82.6384,"{'is_working': True, 'additional_info': []}",Усть-Каменогорск
112118,"ул. Кабанбай батыра, д. 136","(Магазин), возле ТД Euroasia",49.9513578186731,82.6357367609014,"{'is_working': True, 'additional_info': []}",Усть-Каменогорск
112096,"ул. Кабанбай батыра, д. 142","внутри здания ""Центральный рынок""",49.9527368250416,82.6345811797562,"{'is_working': True, 'additional_info': []}",Усть-Каменогорск
42513,"ул. Кабанбай Батыра, д. 142","район центрального рынка, ТД Әлем",49.9524,82.633,"{'is_working': True, 'additional_info': ['Не печатает чек']}",Усть-Каменогорск
42193,"ул. Кабанбай батыра, д. 142/7","район центрального рынка, за ТД Евразия",49.9523,82.6358,"{'is_working': True, 'additional_info': []}",Усть-Каменогорск
112108,"ул. Кабанбай батыра, д. 144","возле ТД Euroasia, р-н Зеленого рынка",49.9518505475189,82.6340125462668,"{'is_working': True, 'additional_info': []}",Усть-Каменогорск
111998,"ул. Кабанбай батыра, д. 144","(магазин Зангар), возле ТД ""Euroasia"", р-н Зеленого рынка",49.9517844550147,82.63419750205,"{'is_working': True, 'additional_info': []}",Усть-Каменогорск
112079,"ул. Кабанбай батыра, д. 148","ТД Кайнар, 1 этаж, возле лестницы",49.9523505044996,82.6324654515892,"{'is_working': True, 'additional_info': []}",Усть-Каменогорск
112076,"ул. Кабанбай батыра, д. 76","ТЦ МЕРЕЙ, 1 этаж, р-н Пристань",49.9462,82.6489,"{'is_working': True, 'additional_info': []}",Усть-Каменогорск
112031,"ул. Кабанбай батыра, д.91","(Магазин), за рынком ""Алтай""",49.9493356585146,82.6371370818522,"{'is_working': True, 'additional_info': []}",Усть-Каменогорск
112136,"ул. Казахстан, д. 104","(Магазин/Кафе), возле Библиотеки им. Пушкина",49.9562,82.6353,"{'is_working': True, 'additional_info': []}",Усть-Каменогорск
112073,"ул. Казахстан, д. 105","уг. ул. Мызы, (Аптека)",49.9590040409328,82.636554919622,"{'is_working': True, 'additional_info': []}",Усть-Каменогорск
40481,"ул. Казахстан, д. 107","уг. ул. Мызы, рядом с трамвайной остановкой",49.9595,82.637,"{'is_working': True, 'additional_info': []}",Усть-Каменогорск
42678,"ул. Казахстан, д. 154А","супермаркет ""Мегастрой"", рядом с трамвайным парком",49.9595,82.6392,"{'is_working': True, 'additional_info': []}",Усть-Каменогорск
112038,"ул.Казахстан, д. 31","уг. ул. Кайсенова, (Кафе)",49.9456244013555,82.6250715167031,"{'is_working': True, 'additional_info': []}",Усть-Каменогорск
109260,"ул. Казахстан, д. 64","(Магазин), рядом с ТЦ Микен и ""Пицца Блюз'', в районе Автоуправления",49.9442,82.6259,"{'is_working': True, 'additional_info': []}",Усть-Каменогорск
109376,"ул. Казахстан, д. 64","(магазин), возле ТЦ Микен и Пиццы Блюз, в районе Автоуправления",49.9445872410994,82.626449808523,"{'is_working': True, 'additional_info': []}",Усть-Каменогорск
109688,"ул. Казахстан, д. 65","уг. ул. Кабанбай батыра, р-н Центрального рынка",49.9516623386,82.6298564735,"{'is_working': True, 'additional_info': []}",Усть-Каменогорск
109965,"ул. Казахстан, д. 65","уг. ул. Кабанбай батыра, р-н Центрального рынка",49.9516623386,82.6298564735,"{'is_working': True, 'additional_info': []}",Усть-Каменогорск
109504,"ул. Казахстан, д. 72","магазин ""Центральный универсам"", возле Центрального рынка, напротив Казахтелекома и кинотеатра ""Юбилейный""",49.9507,82.6314,"{'is_working': True, 'additional_info': []}",Усть-Каменогорск
112024,"ул. Казахстан, д. 76","ТД Жардем, 1 этаж, возле лестницы",49.9531184228689,82.6324963969338,"{'is_working': True, 'additional_info': []}",Усть-Каменогорск
112134,"ул. Казахстан, д. 91/1","(Магазин), р-н Библиотеки им. Пушкина",49.9571,82.6348,"{'is_working': True, 'additional_info': []}",Усть-Каменогорск
112046,"ул. Казахстан, д. 96","магазин ""Колибри"", в р-не Библиотеки им. Пушкина",49.9548,82.6358,"{'is_working': True, 'additional_info': []}",Усть-Каменогорск
42684,"ул. Казыбек би, д. 5",уг. ул. Увалиева,49.8954,82.6152,"{'is_working': True, 'additional_info': []}",Усть-Каменогорск
112035,"ул. Калихана Ыскака, д. 98/1",уг. ул. Мостовая,49.9739,82.5679,"{'is_working': True, 'additional_info': []}",Усть-Каменогорск
112157,"ул. Каныша Сатпаева, д. 16",возле пункта полиции №18,49.903,82.6221,"{'is_working': True, 'additional_info': []}",Усть-Каменогорск
112142,"ул. Карбышева, д. 28","возле магазина ""Ивушка""",49.9618,82.5832,"{'is_working': True, 'additional_info': []}",Усть-Каменогорск
112104,"ул. Карла Маркса, д. 7/4",р-н КШТ,49.8955,82.6114,"{'is_working': True, 'additional_info': []}",Усть-Каменогорск
110248,"ул. Кирова, д. 46","уг. ул. Тохтарова, в р-не парка им. Кирова",49.9482,82.6201,"{'is_working': True, 'additional_info': []}",Усть-Каменогорск
109714,"ул. Кирова, д. 46",,49.9482,82.6201,"{'is_working': True, 'additional_info': []}",Усть-Каменогорск
42215,"ул. Кожедуба, д. 50","конечная остановка, р-он пос. Красина",49.9429,82.6631,"{'is_working': True, 'additional_info': []}",Усть-Каменогорск
112003,"ул. Кооперативная, д. 8А","уг. ул. Ярославской, р-н поселка Меновное",49.9384704863497,82.5823817316385,"{'is_working': True, 'additional_info': []}",Усть-Каменогорск
112155,"ул. Космическая, д. 12",напротив бывш. Дома Художников,49.9634,82.6096,"{'is_working': True, 'additional_info': []}",Усть-Каменогорск
42054,"ул. Красина, д. 11",возле рынка автозапчастей,49.9586,82.6203,"{'is_working': True, 'additional_info': []}",Усть-Каменогорск
109716,ул. Крылова 73,"уг. ул. Ауэзова, ост. Колос",49.9463736138,82.6125993571,"{'is_working': True, 'additional_info': []}",Усть-Каменогорск
112072,"ул. Крылова, д. 106","уг. ул. Протозанова, (Пивная станция)",49.9498246228812,82.6068119239423,"{'is_working': True, 'additional_info': []}",Усть-Каменогорск
112023,"ул. Крылова, д. 74","напротив отделения Kaspi Bank, (магазин Алка)",49.9465670722039,82.6135564199672,"{'is_working': True, 'additional_info': []}",Усть-Каменогорск
112032,"ул. Крылова, д. 80",уг. ул. Ауэзова,49.948,82.6113,"{'is_working': True, 'additional_info': []}",Усть-Каменогорск
41523,"ул. Лермонтова, д. 50/1",возле Технологического колледжа,49.9708,82.6208,"{'is_working': True, 'additional_info': []}",Усть-Каменогорск
112036,"ул. Ломоносова, д. 43/3","уг. бульвара Гагарина, Аптека",49.9677814639549,82.5774020646548,"{'is_working': True, 'additional_info': []}",Усть-Каменогорск
112012,"ул. Льва Толстого, д. 15","уг. ул Пушкина, магазин ""Сударыня""",49.946505926808,82.6537173597368,"{'is_working': True, 'additional_info': []}",Усть-Каменогорск
112016,"ул. Льва Толстого, д. 8",Универсам №3,49.947693105116,82.6492405490489,"{'is_working': True, 'additional_info': []}",Усть-Каменогорск
112089,"ул. Максима Горького, д. 71","ЦУМ, 1 этаж, возле лестницы",49.9505885680035,82.6176126671468,"{'is_working': True, 'additional_info': []}",Усть-Каменогорск
112007,ул. Малдыбаева,"(Магазин 24 часа), напротив магазина ""Ермак"", автобусная остановка",49.9270957000363,82.6709059966905,"{'is_working': True, 'additional_info': []}",Усть-Каменогорск
112034,"ул. Машиностроительная, д.4",(магазин На Карабахе),50.012323949033,82.6722527613265,"{'is_working': True, 'additional_info': []}",Усть-Каменогорск
112006,"ул. Маяковского, д. 10/1",уг. бульвара Гагарина,49.9663214486206,82.5786305385732,"{'is_working': True, 'additional_info': []}",Усть-Каменогорск
112138,"ул. Менделеева, д. 12","р-н Согра, напротив ТД Валентина",50.0276,82.7335,"{'is_working': True, 'additional_info': []}",Усть-Каменогорск
112017,"ул. Менделеева, д. 12","р-н Согра, напротив ТД Валентина",50.0276494475654,82.7335011018522,"{'is_working': True, 'additional_info': []}",Усть-Каменогорск
112092,"ул. Менделеева, д. 15","гасторном ""Кристалл"", р-н Согра",50.0265693463993,82.7312535255565,"{'is_working': True, 'additional_info': []}",Усть-Каменогорск
112050,"ул. Металлургов, д. 30",уг. пр. Нурсултана Назарбаева,49.9757,82.587,"{'is_working': True, 'additional_info': []}",Усть-Каменогорск
112156,"ул. Михаэлиса, д. 4",уг. ул. Абая,49.965,82.6133,"{'is_working': True, 'additional_info': []}",Усть-Каменогорск
112145,"ул. Михаэлиса, д. 4",уг. ул. Абая,49.9651,82.613,"{'is_working': True, 'additional_info': []}",Усть-Каменогорск
112042,"ул. Михаэлиса, д. 7","напротив Аллеи, возле музыкальной школы",49.9645651008169,82.6072361301631,"{'is_working': True, 'additional_info': []}",Усть-Каменогорск
112054,"ул. Молдагуловой, д. 12","16 мкр-н, Магазин",49.8906,82.6605,"{'is_working': True, 'additional_info': []}",Усть-Каменогорск
112111,"ул. Мухамеджана Тынышпаева, д. 134","район станции ""Защита"", автобусная остановка ""Кузнецова""",50.0115209935366,82.5629058359781,"{'is_working': True, 'additional_info': []}",Усть-Каменогорск
40982,"ул. Мухамеджана Тынышпаева, д. 90/1","уг. ул. Грейдерная, район Защиты",50.002,82.5736,"{'is_working': True, 'additional_info': []}",Усть-Каменогорск
112039,"ул. Мызы, б/н",(ж/д вокзал),49.9561504954591,82.6475112486773,"{'is_working': True, 'additional_info': []}",Усть-Каменогорск
112021,"ул. Мызы, д. 2А",Оптовка,49.9576519219038,82.6443618326688,"{'is_working': True, 'additional_info': []}",Усть-Каменогорск
112124,"ул. Набережная им. Славского, д. 14/1","на остановке, напротив ""ABDI""",49.9426166566172,82.6192466613767,"{'is_working': True, 'additional_info': []}",Усть-Каменогорск
112028,"ул. Набережная им. Славского, д. 60","р-н Стрелка, возле ресторана ""Венеция""",49.9472025683618,82.5919138637537,"{'is_working': True, 'additional_info': []}",Усть-Каменогорск
42307,"ул. Независимости, д. 46/1",на территории ТД Астана,50.3323,83.4988,"{'is_working': True, 'additional_info': []}",Риддер
117164,"ул. Нефтяная, д. 7/1","уг. ул. Бажова, возле офиса ""КазМунайГаз""",49.9917,82.5783,"{'is_working': True, 'additional_info': []}",Усть-Каменогорск
112005,"ул. Новаторов, д. 19",(магазин Сигнал),49.9541332068585,82.6477483090736,"{'is_working': True, 'additional_info': []}",Усть-Каменогорск
109167,"ул. Островского, д. 4","рядом остановки ""Островская""",49.891727185544,82.6964344145932,"{'is_working': True, 'additional_info': []}",Усть-Каменогорск
112020,"ул. Потанина, д. 19",напротив поликлиники,49.9585316605897,82.6027288908762,"{'is_working': True, 'additional_info': []}",Усть-Каменогорск
112112,"ул. Протозанова, д. 137","р-н Стрелки, рядом с элитным домом ""Престиж""",49.9485091815321,82.5919341864832,"{'is_working': True, 'additional_info': []}",Усть-Каменогорск
112126,"ул. Протозанова, д. 33",возле магазина автозапчастей,49.9571,82.6272,"{'is_working': True, 'additional_info': []}",Усть-Каменогорск
112004,"ул. Рижская, д. 19","(магазинн Береке), на левом берегу, за ж/д переездом",49.9304650644979,82.6520651583602,"{'is_working': True, 'additional_info': []}",Усть-Каменогорск
112043,"ул. Сагадата Нурмагамбетова, д. 53","рядом с филиалом ""Народного Банка"", возле магазина ""Изумруд""",49.952,82.6187,"{'is_working': True, 'additional_info': []}",Усть-Каменогорск
40570,"ул. Сатпаева, д. 14/4","магазин ""НУР"", рядом с отделением КАЗПОЧТЫ",49.9022,82.6214,"{'is_working': True, 'additional_info': []}",Усть-Каменогорск
112062,"ул. Сатпаева, д. 8","вдоль дороги, напротив отделения Банк ЦентрКредит",49.8987954611189,82.6203580674091,"{'is_working': True, 'additional_info': []}",Усть-Каменогорск
41794,"ул. Серикбаева, д. 23/1","на автобусной ост. ""Ровесник""",49.9593,82.5852,"{'is_working': True, 'additional_info': []}",Усть-Каменогорск
113422,"ул. Советская, 38","напротив рынка ""Центральный"", пересечение ул. Советская и ул. Первомайская, в одном здании с партией ""Нур-Отан""",49.722713,84.270438,"{'is_working': True, 'additional_info': []}",Алтай
109875,"ул. Советская, 38","напротив рынка ""Центральный"", пересечение ул. Советская и ул. Первомайская, в одном здании с партией ""Нур-Отан""",49.722713,84.270438,"{'is_working': True, 'additional_info': []}",Алтай
110247,"ул. Советская, 38","напротив рынка ""Центральный"", пересечение ул. Советская и ул. Первомайская, в одном здании с партией ""Нур-Отан""",49.722713,84.270438,"{'is_working': True, 'additional_info': []}",Алтай
42465,"ул. Советская, д. 38","отделение ""Kaspi Bank""",49.722713,84.270438,"{'is_working': True, 'additional_info': []}",Алтай
112053,"ул. Темиpжолшылар, д. 144","р-н Защиты, напротив ж/д вокзала",50.0065323415477,82.5665241157404,"{'is_working': True, 'additional_info': []}",Усть-Каменогорск
112148,"ул. Тимирязева, д. 179","возле СШ №11 и гастранома ""Ромашка""",49.9654,82.6031,"{'is_working': True, 'additional_info': []}",Усть-Каменогорск
112153,"ул. Утепова, д. 13/1","(ТД Достык), возле отделения Kaspi Bank",49.9002,82.6167,"{'is_working': True, 'additional_info': []}",Усть-Каменогорск
112061,"ул. Утепова, д. 13/1","(ТД Достык), возле магазина ""Багратион""",49.900283157343,82.6165356111334,"{'is_working': True, 'additional_info': []}",Усть-Каменогорск
40487,"ул. Утепова, д. 25/2","ТД Океан, главный вход, банкоматная зона",49.8985,82.6131,"{'is_working': True, 'additional_info': []}",Усть-Каменогорск
112143,"ул. Утепова, д. 25/2","ТД Океан, главный вход, банкоматная зона",49.8985,82.6131,"{'is_working': True, 'additional_info': []}",Усть-Каменогорск
112125,"ул. Утепова, д. 27/2","(ТД Достык), р-н КШТ",49.9008150000658,82.6161198016178,"{'is_working': True, 'additional_info': []}",Усть-Каменогорск
112149,"ул. Утепова, д. 29","(магазин Ассорти),возле кафе ""Пицца-блюз""",49.9006,82.6134,"{'is_working': True, 'additional_info': []}",Усть-Каменогорск
41374,"ул. Утепова, д. 30",напротив Центра матери и ребенка,49.9029,82.6091,"{'is_working': True, 'additional_info': []}",Усть-Каменогорск
112100,"ул. Утепова, д. 31/4","(магазин Айзере), напротив автостоянки",49.8986138169955,82.612087149573,"{'is_working': True, 'additional_info': []}",Усть-Каменогорск
112131,"ул. Утепова, д. 7/1","ТД Айгерим, банкоматная зона",49.8992,82.6181,"{'is_working': True, 'additional_info': []}",Усть-Каменогорск
112011,"ул. Утепова, д. 7/1","ТД Айгерим, центральный вход, в тамбуре",49.8992613667601,82.6183270271924,"{'is_working': True, 'additional_info': []}",Усть-Каменогорск
112055,"ул. Энтузиастов, д. 9",р-н пос. Куленовка,49.8955029349286,82.6584155844421,"{'is_working': True, 'additional_info': []}",Усть-Каменогорск
112000,"ул. Красина, д. 8/1","(магазин Виктория), в р-не ""Тополиной рощи"" в двадцатиподъездном доме, въезд через ФОК",49.9606458054453,82.6268726821283,"{'is_working': False, 'additional_info': []}",Усть-Каменогорск
110239,"пр. Независимости, 17","уг. ул. Клинка, в р-н Площади независимости",50.336689,83.50481,"{'is_working': False, 'additional_info': []}",Риддер
112130,"пр. Нурсултана Назарбаева, д. 42/2","ТД Аружан, остановка ""45-я аптека""",49.9658,82.5989,"{'is_working': False, 'additional_info': []}",Усть-Каменогорск
112099,"ул. Антона Чехова, д. 74","уг. ул. Кабанбай батыра, (Гастроном)",49.954083201646,82.6253411606593,"{'is_working': False, 'additional_info': []}",Усть-Каменогорск
112133,"ул. Бурова, д. 16/1","магазин на ост. ""Поликлиника"", напротив Обл. психо-наркодиспансера",49.9527,82.6436,"{'is_working': False, 'additional_info': []}",Усть-Каменогорск
112097,"ул. Бурова, д. 8/1","магазин ""Ассорти"", во дворах",49.9491,82.6428,"{'is_working': False, 'additional_info': []}",Усть-Каменогорск
42636,"ул. Калинина, д. 72","уг. ул. Бажова, СТО ""Auto City""",49.9705,82.617,"{'is_working': False, 'additional_info': []}",Усть-Каменогорск
112009,"ул. Новаторов, д. 2","уг. ул. Кабанбай батыра, напротив АЗС ""Sinoоil""",49.9473342279451,82.646561659737,"{'is_working': False, 'additional_info': []}",Усть-Каменогорск
112147,"ул. Севастопольская, д. 5","возле строй. магазина ""Меркурий""",49.966,82.5807,"{'is_working': False, 'additional_info': []}",Усть-Каменогорск
