{
"type": "FeatureCollection",
"features": [
{ "type": "Feature", "properties": { "Unnamed: 0": 0, "address_geocoded": "улица Каныша Сатпаева 10, 010010 Нұр-Сұлтан, Қазақстан", "displayLongitude": 71.46999, "displayLatitude": 51.15041, "address": "4 мкр-н, ул. К.Сатпаева, д. 10" }, "geometry": { "type": "Point", "coordinates": [ 71.46999, 51.15041 ] } },
{ "type": "Feature", "properties": { "Unnamed: 0": 1, "address_geocoded": "проспект Богенбай батыра 6B, 010000 Нұр-Сұлтан, Қазақстан", "displayLongitude": 71.39208, "displayLatitude": 51.17638, "address": "пр. Богенбай батыра, д. 6Б" }, "geometry": { "type": "Point", "coordinates": [ 71.39208, 51.17638 ] } },
{ "type": "Feature", "properties": { "Unnamed: 0": 2, "address_geocoded": "проспект Абылай Хана 34, 010009 Нұр-Сұлтан, Қазақстан", "displayLongitude": 71.48567, "displayLatitude": 51.15404, "address": "р-н Алматы, пр. Абылай Хана, д. 34" }, "geometry": { "type": "Point", "coordinates": [ 71.48567, 51.15404 ] } },
{ "type": "Feature", "properties": { "Unnamed: 0": 3, "address_geocoded": "улица Амангельды Иманова 8, 010000 Нұр-Сұлтан, Қазақстан", "displayLongitude": 71.43023, "displayLatitude": 51.16269, "address": "р-н Алматы, ул. Иманова, д. 8" }, "geometry": { "type": "Point", "coordinates": [ 71.43023, 51.16269 ] } },
{ "type": "Feature", "properties": { "Unnamed: 0": 4, "address_geocoded": "улица Алматы 78, 010000 Нұр-Сұлтан, Қазақстан", "displayLongitude": 71.43281, "displayLatitude": 51.11575, "address": "р-н Алматы, ул. Кенесары, д. 78" }, "geometry": { "type": "Point", "coordinates": [ 71.43281, 51.11575 ] } },
{ "type": "Feature", "properties": { "Unnamed: 0": 5, "address_geocoded": "улица Алматы 14, 010000 Нұр-Сұлтан, Қазақстан", "displayLongitude": 71.41937, "displayLatitude": 51.117, "address": "р-н Алматы, ул. Ш. Валиханова, д. 24" }, "geometry": { "type": "Point", "coordinates": [ 71.41937, 51.117 ] } },
{ "type": "Feature", "properties": { "Unnamed: 0": 6, "address_geocoded": "улица Достык 12, 010000 Нұр-Сұлтан, Қазақстан", "displayLongitude": 71.42573, "displayLatitude": 51.12616, "address": "р-н Есиль, ул. Достык, д. 12, ВП 36" }, "geometry": { "type": "Point", "coordinates": [ 71.42573, 51.12616 ] } },
{ "type": "Feature", "properties": { "Unnamed: 0": 7, "address_geocoded": "улица Есил 1, 010009 Нұр-Сұлтан, Қазақстан", "displayLongitude": 71.51731, "displayLatitude": 51.14382, "address": "р-н Есиль, ул. Кунаева, д. 14\/2, ВП 1" }, "geometry": { "type": "Point", "coordinates": [ 71.51731, 51.14382 ] } },
{ "type": "Feature", "properties": { "Unnamed: 0": 8, "address_geocoded": "улица Сыганак 10, 010000 Нұр-Сұлтан, Қазақстан", "displayLongitude": 71.41971, "displayLatitude": 51.12413, "address": "р-н Есиль, ул. Сыганак, д. 10, ВП 27" }, "geometry": { "type": "Point", "coordinates": [ 71.41971, 51.12413 ] } },
{ "type": "Feature", "properties": { "Unnamed: 0": 9, "address_geocoded": "проспект Богенбай батыра 63, 010000 Нұр-Сұлтан, Қазақстан", "displayLongitude": 71.4325, "displayLatitude": 51.17863, "address": "р-н Сарыарка, пр. Богенбай батыра, д. 63, кв. 38" }, "geometry": { "type": "Point", "coordinates": [ 71.4325, 51.17863 ] } },
{ "type": "Feature", "properties": { "Unnamed: 0": 10, "address_geocoded": "проспект Женис 25, 010000 Нұр-Сұлтан, Қазақстан", "displayLongitude": 71.41209, "displayLatitude": 51.17052, "address": "р-н Сарыарка, пр. Женис, д. 25, ВП 1" }, "geometry": { "type": "Point", "coordinates": [ 71.41209, 51.17052 ] } },
{ "type": "Feature", "properties": { "Unnamed: 0": 11, "address_geocoded": "проспект Женис 8\/1, 010000 Нұр-Сұлтан, Қазақстан", "displayLongitude": 71.41491, "displayLatitude": 51.16445, "address": "р-н Сарыарка, пр. Женис, д. 8\/1, кв. 4" }, "geometry": { "type": "Point", "coordinates": [ 71.41491, 51.16445 ] } },
{ "type": "Feature", "properties": { "Unnamed: 0": 12, "address_geocoded": "улица Бейбитшилик 36, 010000 Нұр-Сұлтан, Қазақстан", "displayLongitude": 71.41856, "displayLatitude": 51.17839, "address": "р-н Сарыарка, ул. Бейбитшилик, д. 36, кв. 22, 3" }, "geometry": { "type": "Point", "coordinates": [ 71.41856, 51.17839 ] } },
{ "type": "Feature", "properties": { "Unnamed: 0": 13, "address_geocoded": "улица Ильяса Есенберлина 12, 010011 Нұр-Сұлтан, Қазақстан", "displayLongitude": 71.40737, "displayLatitude": 51.19086, "address": "р-н Сарыарка, ул. Есенберлина (бывш. пр. Акжайык), д. 12, ВП 1" }, "geometry": { "type": "Point", "coordinates": [ 71.40737, 51.19086 ] } },
{ "type": "Feature", "properties": { "Unnamed: 0": 14, "address_geocoded": "улица Алматы 13, 010000 Нұр-Сұлтан, Қазақстан", "displayLongitude": 71.4312, "displayLatitude": 51.11594, "address": "р-н  Алматы, ул. Ш. Валиханова, д. 13" }, "geometry": { "type": "Point", "coordinates": [ 71.4312, 51.11594 ] } },
{ "type": "Feature", "properties": { "Unnamed: 0": 15, "address_geocoded": "улица Сакена Сейфуллина 33, 010000 Нұр-Сұлтан, Қазақстан", "displayLongitude": 71.42642, "displayLatitude": 51.17182, "address": "ул. Сейфуллина, д. 33, ВП 2" }, "geometry": { "type": "Point", "coordinates": [ 71.42642, 51.17182 ] } },
{ "type": "Feature", "properties": { "Unnamed: 0": 16, "address_geocoded": "микрорайон 11-й 27, 050035 Алматы, Қазақстан", "displayLongitude": 76.87346, "displayLatitude": 43.21942, "address": "11 мкр-н, д. 27" }, "geometry": { "type": "Point", "coordinates": [ 76.87346, 43.21942 ] } },
{ "type": "Feature", "properties": { "Unnamed: 0": 17, "address_geocoded": "микрорайон Айнабулак-2 71D, 050014 Алматы, Қазақстан", "displayLongitude": 76.91567, "displayLatitude": 43.31986, "address": "мкр. Айнабулак-2, д. 71 Д" }, "geometry": { "type": "Point", "coordinates": [ 76.91567, 43.31986 ] } },
{ "type": "Feature", "properties": { "Unnamed: 0": 18, "address_geocoded": "микрорайон Айнабулак-4 172G, 050014 Алматы, Қазақстан", "displayLongitude": 76.91439, "displayLatitude": 43.32186, "address": "мкр. Айнабулак-4, д. 172 Г" }, "geometry": { "type": "Point", "coordinates": [ 76.91439, 43.32186 ] } },
{ "type": "Feature", "properties": { "Unnamed: 0": 19, "address_geocoded": "микрорайон Аксай-3 1, 050031 Алматы, Қазақстан", "displayLongitude": 76.82846, "displayLatitude": 43.23828, "address": "мкр. Аксай-3, д. 1, помещение 69" }, "geometry": { "type": "Point", "coordinates": [ 76.82846, 43.23828 ] } },
{ "type": "Feature", "properties": { "Unnamed: 0": 20, "address_geocoded": "улица Жумагали Саина 4, 050031 Алматы, Қазақстан", "displayLongitude": 76.83888, "displayLatitude": 43.24507, "address": "мкр. Аксай-4, ул. Саина, д. 96А" }, "geometry": { "type": "Point", "coordinates": [ 76.83888, 43.24507 ] } },
{ "type": "Feature", "properties": { "Unnamed: 0": 21, "address_geocoded": "микрорайон Казахфильм 17, 050057 Алматы, Қазақстан", "displayLongitude": 76.90474, "displayLatitude": 43.19443, "address": "мкр. Казахфильм, ул. Исиналиева, д. 17" }, "geometry": { "type": "Point", "coordinates": [ 76.90474, 43.19443 ] } },
{ "type": "Feature", "properties": { "Unnamed: 0": 22, "address_geocoded": "микрорайон Калкаман-2 33, Алматы, Қазақстан", "displayLongitude": 76.79308, "displayLatitude": 43.23012, "address": "мкр. Калкаман-2, д. 49" }, "geometry": { "type": "Point", "coordinates": [ 76.79308, 43.23012 ] } },
{ "type": "Feature", "properties": { "Unnamed: 0": 23, "address_geocoded": "микрорайон Мамыр-1 4, 050036 Алматы, Қазақстан", "displayLongitude": 76.84312, "displayLatitude": 43.21003, "address": "мкр. Мамыр-1, д. 4" }, "geometry": { "type": "Point", "coordinates": [ 76.84312, 43.21003 ] } },
{ "type": "Feature", "properties": { "Unnamed: 0": 24, "address_geocoded": "микрорайон Орбита-3 4A, 050043 Алматы, Қазақстан", "displayLongitude": 76.87925, "displayLatitude": 43.20047, "address": "мкр. Орбита-3, д. 4А" }, "geometry": { "type": "Point", "coordinates": [ 76.87925, 43.20047 ] } },
{ "type": "Feature", "properties": { "Unnamed: 0": 25, "address_geocoded": "микрорайон Самал-2 104, 050051 Алматы, Қазақстан", "displayLongitude": 76.95185, "displayLatitude": 43.23276, "address": "мкр. Самал-2, д. 105" }, "geometry": { "type": "Point", "coordinates": [ 76.95185, 43.23276 ] } },
{ "type": "Feature", "properties": { "Unnamed: 0": 26, "address_geocoded": "проспект Абая 141, 050009 Алматы, Қазақстан", "displayLongitude": 76.89558, "displayLatitude": 43.23939, "address": "пр. Абая, д. 141" }, "geometry": { "type": "Point", "coordinates": [ 76.89558, 43.23939 ] } },
{ "type": "Feature", "properties": { "Unnamed: 0": 27, "address_geocoded": "проспект Абая 34, 050022 Алматы, Қазақстан", "displayLongitude": 76.93215, "displayLatitude": 43.24109, "address": "пр. Абая, д. 34\/96" }, "geometry": { "type": "Point", "coordinates": [ 76.93215, 43.24109 ] } },
{ "type": "Feature", "properties": { "Unnamed: 0": 28, "address_geocoded": "проспект Абая 46, 050022 Алматы, Қазақстан", "displayLongitude": 76.92335, "displayLatitude": 43.2405, "address": "пр. Абая, д. 46" }, "geometry": { "type": "Point", "coordinates": [ 76.92335, 43.2405 ] } },
{ "type": "Feature", "properties": { "Unnamed: 0": 29, "address_geocoded": "проспект Абылай Хана 113, 050000 Алматы, Қазақстан", "displayLongitude": 76.9413, "displayLatitude": 43.25259, "address": "пр. Абылай хана, д. 113" }, "geometry": { "type": "Point", "coordinates": [ 76.9413, 43.25259 ] } },
{ "type": "Feature", "properties": { "Unnamed: 0": 30, "address_geocoded": "проспект Абылай Хана 68, 050000 Алматы, Қазақстан", "displayLongitude": 76.94118, "displayLatitude": 43.26013, "address": "пр. Абылай хана, д. 68" }, "geometry": { "type": "Point", "coordinates": [ 76.94118, 43.26013 ] } },
{ "type": "Feature", "properties": { "Unnamed: 0": 31, "address_geocoded": "проспект Достык 248, 050051 Алматы, Қазақстан", "displayLongitude": 76.96315, "displayLatitude": 43.2234, "address": "пр. Достык, д. 248" }, "geometry": { "type": "Point", "coordinates": [ 76.96315, 43.2234 ] } },
{ "type": "Feature", "properties": { "Unnamed: 0": 32, "address_geocoded": "Жібек Жолы көшесі 52, 050002 Алматы, Қазақстан", "displayLongitude": 76.95542, "displayLatitude": 43.26233, "address": "пр. Жибек Жолы, д. 52" }, "geometry": { "type": "Point", "coordinates": [ 76.95542, 43.26233 ] } },
{ "type": "Feature", "properties": { "Unnamed: 0": 33, "address_geocoded": "проспект Райымбека 239G, 050034 Алматы, Қазақстан", "displayLongitude": 76.9000169, "displayLatitude": 43.2642238, "address": "пр. Райымбека, д. 239Г" }, "geometry": { "type": "Point", "coordinates": [ 76.900016900000011, 43.2642238 ] } },
{ "type": "Feature", "properties": { "Unnamed: 0": 34, "address_geocoded": "проспект Сакена Сейфуллина 168B, 050037 Алматы, Қазақстан", "displayLongitude": 76.94004, "displayLatitude": 43.30831, "address": "пр. Сейфуллина, д. 168Б" }, "geometry": { "type": "Point", "coordinates": [ 76.94004, 43.30831 ] } },
{ "type": "Feature", "properties": { "Unnamed: 0": 35, "address_geocoded": "проспект Сакена Сейфуллина 458, 050000 Алматы, Қазақстан", "displayLongitude": 76.93272, "displayLatitude": 43.25829, "address": "пр. Сейфуллина, д. 458" }, "geometry": { "type": "Point", "coordinates": [ 76.93272, 43.25829 ] } },
{ "type": "Feature", "properties": { "Unnamed: 0": 36, "address_geocoded": "переулок Ташкентский 16, 050031 Алматы, Қазақстан", "displayLongitude": 76.8220336, "displayLatitude": 43.233104, "address": "Ташкентский тракт, д. 17к" }, "geometry": { "type": "Point", "coordinates": [ 76.822033599999983, 43.233104 ] } },
{ "type": "Feature", "properties": { "Unnamed: 0": 37, "address_geocoded": "улица 6-я линия 72, Алматы, Қазақстан", "displayLongitude": 76.84567, "displayLatitude": 43.1973, "address": "ул. 6-я линия, д. 1\/172" }, "geometry": { "type": "Point", "coordinates": [ 76.84567, 43.1973 ] } },
{ "type": "Feature", "properties": { "Unnamed: 0": 38, "address_geocoded": "улица Ораза Жандосова 162A, 050042 Алматы, Қазақстан", "displayLongitude": 76.8689991, "displayLatitude": 43.2116998, "address": "ул. Жандосова, д. 162а" }, "geometry": { "type": "Point", "coordinates": [ 76.8689991, 43.2116998 ] } },
{ "type": "Feature", "properties": { "Unnamed: 0": 39, "address_geocoded": "улица Ораза Жандосова 21, 050057 Алматы, Қазақстан", "displayLongitude": 76.89905, "displayLatitude": 43.23198, "address": "ул. Жандосова, д. 21" }, "geometry": { "type": "Point", "coordinates": [ 76.89905, 43.23198 ] } },
{ "type": "Feature", "properties": { "Unnamed: 0": 40, "address_geocoded": "улица Динмухамеда Конаева 58, 050002 Алматы, Қазақстан", "displayLongitude": 76.94948, "displayLatitude": 43.26304, "address": "ул. Кунаева, д. 58" }, "geometry": { "type": "Point", "coordinates": [ 76.94948, 43.26304 ] } },
{ "type": "Feature", "properties": { "Unnamed: 0": 41, "address_geocoded": "улица Беимбета Майлина 224, 050054 Алматы, Қазақстан", "displayLongitude": 76.9808, "displayLatitude": 43.33382, "address": "ул. Майлина, д. 224" }, "geometry": { "type": "Point", "coordinates": [ 76.9808, 43.33382 ] } },
{ "type": "Feature", "properties": { "Unnamed: 0": 42, "address_geocoded": "улица Бауыржана Момышулы 40, 050031 Алматы, Қазақстан", "displayLongitude": 76.8307638, "displayLatitude": 43.2367326, "address": "ул. Момышулы, д. 40" }, "geometry": { "type": "Point", "coordinates": [ 76.830763799999986, 43.2367326 ] } },
{ "type": "Feature", "properties": { "Unnamed: 0": 43, "address_geocoded": "улица Полины Осипенко 14, 050011 Алматы, Қазақстан", "displayLongitude": 76.94749, "displayLatitude": 43.33988, "address": "ул. Осипенко, д. 14" }, "geometry": { "type": "Point", "coordinates": [ 76.94749, 43.33988 ] } },
{ "type": "Feature", "properties": { "Unnamed: 0": 44, "address_geocoded": "улица Абдуллы Розыбакиева 77, 050046 Алматы, Қазақстан", "displayLongitude": 76.88971, "displayLatitude": 43.23518, "address": "ул. Розыбакиева, д. 77" }, "geometry": { "type": "Point", "coordinates": [ 76.88971, 43.23518 ] } },
{ "type": "Feature", "properties": { "Unnamed: 0": 45, "address_geocoded": "улица Климента Тимирязева 32D, 050040 Алматы, Қазақстан", "displayLongitude": 76.93132, "displayLatitude": 43.22712, "address": "ул. Тимирязева, д. 32Д" }, "geometry": { "type": "Point", "coordinates": [ 76.93132, 43.22712 ] } },
{ "type": "Feature", "properties": { "Unnamed: 0": 46, "address_geocoded": "улица Климента Тимирязева 40, 050057 Алматы, Қазақстан", "displayLongitude": 76.90686, "displayLatitude": 43.22549, "address": "ул. Тимирязева, д. 40" }, "geometry": { "type": "Point", "coordinates": [ 76.90686, 43.22549 ] } },
{ "type": "Feature", "properties": { "Unnamed: 0": 47, "address_geocoded": "улица Толе Би 130B, 050026 Алматы, Қазақстан", "displayLongitude": 76.9136, "displayLatitude": 43.25235, "address": "ул. Толе би, д. 130Б" }, "geometry": { "type": "Point", "coordinates": [ 76.9136, 43.25235 ] } },
{ "type": "Feature", "properties": { "Unnamed: 0": 48, "address_geocoded": "улица Толе Би 262, 050009 Алматы, Қазақстан", "displayLongitude": 76.87832, "displayLatitude": 43.24988, "address": "ул. Толе би, д. 262\/93" }, "geometry": { "type": "Point", "coordinates": [ 76.87832, 43.24988 ] } },
{ "type": "Feature", "properties": { "Unnamed: 0": 49, "address_geocoded": "улица Толе Би 272, 050005 Алматы, Қазақстан", "displayLongitude": 76.87321, "displayLatitude": 43.24885, "address": "ул. Толе би, д. 272" }, "geometry": { "type": "Point", "coordinates": [ 76.87321, 43.24885 ] } },
{ "type": "Feature", "properties": { "Unnamed: 0": 50, "address_geocoded": "улица Михаила Шолохова 6, 050011 Алматы, Қазақстан", "displayLongitude": 76.95384, "displayLatitude": 43.33353, "address": "ул. Шолохова, д. 6" }, "geometry": { "type": "Point", "coordinates": [ 76.95384, 43.33353 ] } },
{ "type": "Feature", "properties": { "Unnamed: 0": 51, "address_geocoded": "микрорайон 11 56, Ақтау, Қазақстан", "displayLongitude": 51.15777, "displayLatitude": 43.65651, "address": "11 мкр-н, д. 58" }, "geometry": { "type": "Point", "coordinates": [ 51.15777, 43.65651 ] } },
{ "type": "Feature", "properties": { "Unnamed: 0": 52, "address_geocoded": "микрорайон 14 58, Ақтау, Қазақстан", "displayLongitude": 51.14408, "displayLatitude": 43.65855, "address": "14 мкр-н, д. 58" }, "geometry": { "type": "Point", "coordinates": [ 51.14408, 43.65855 ] } },
{ "type": "Feature", "properties": { "Unnamed: 0": 53, "address_geocoded": "микрорайон 26 2, Ақтау, Қазақстан", "displayLongitude": 51.16739, "displayLatitude": 43.65911, "address": "26 мкр-н, д. 25\/2" }, "geometry": { "type": "Point", "coordinates": [ 51.16739, 43.65911 ] } },
{ "type": "Feature", "properties": { "Unnamed: 0": 54, "address_geocoded": "микрорайон 27 25, Ақтау, Қазақстан", "displayLongitude": 51.16535, "displayLatitude": 43.66577, "address": "27 мкр-н, д. 25, кв. 1" }, "geometry": { "type": "Point", "coordinates": [ 51.16535, 43.66577 ] } },
{ "type": "Feature", "properties": { "Unnamed: 0": 55, "address_geocoded": "микрорайон 2 47B, Ақтау, Қазақстан", "displayLongitude": 51.16718, "displayLatitude": 43.63869, "address": "2 мкр-н, д. 47 Б" }, "geometry": { "type": "Point", "coordinates": [ 51.16718, 43.63869 ] } },
{ "type": "Feature", "properties": { "Unnamed: 0": 56, "address_geocoded": "проспект Абылхайыр Хана 1, Ақтөбе, Қазақстан", "displayLongitude": 57.1474, "displayLatitude": 50.31081, "address": "пр. Абылхаир хана, д. 1" }, "geometry": { "type": "Point", "coordinates": [ 57.1474, 50.31081 ] } },
{ "type": "Feature", "properties": { "Unnamed: 0": 57, "address_geocoded": "проспект Абылхайыр Хана 53, Ақтөбе, Қазақстан", "displayLongitude": 57.15907, "displayLatitude": 50.29519, "address": "пр. Абылхаир хана, д. 53" }, "geometry": { "type": "Point", "coordinates": [ 57.15907, 50.29519 ] } },
{ "type": "Feature", "properties": { "Unnamed: 0": 58, "address_geocoded": "проспект Абылхайыр Хана 89, Ақтөбе, Қазақстан", "displayLongitude": 57.17723, "displayLatitude": 50.28748, "address": "пр. Абылхаир хана, д. 89" }, "geometry": { "type": "Point", "coordinates": [ 57.17723, 50.28748 ] } },
{ "type": "Feature", "properties": { "Unnamed: 0": 59, "address_geocoded": "улица Тахави Ахтанова 4, Ақтөбе, Қазақстан", "displayLongitude": 57.22724, "displayLatitude": 50.27512, "address": "ул. Ахтанова, д. 48\/4" }, "geometry": { "type": "Point", "coordinates": [ 57.22724, 50.27512 ] } },
{ "type": "Feature", "properties": { "Unnamed: 0": 60, "address_geocoded": "улица Заводская 43, Ақтөбе, Қазақстан", "displayLongitude": 57.23204, "displayLatitude": 50.27327, "address": "ул. Заводская, д. 43, ВП 63" }, "geometry": { "type": "Point", "coordinates": [ 57.23204, 50.27327 ] } },
{ "type": "Feature", "properties": { "Unnamed: 0": 61, "address_geocoded": "улица Жансена Кереева 2, Ақтөбе, Қазақстан", "displayLongitude": 57.21752, "displayLatitude": 50.28199, "address": "ул. Кереева, д. 2" }, "geometry": { "type": "Point", "coordinates": [ 57.21752, 50.28199 ] } },
{ "type": "Feature", "properties": { "Unnamed: 0": 62, "address_geocoded": "улица Алексея Маресьева 40, Ақтөбе, Қазақстан", "displayLongitude": 57.14757, "displayLatitude": 50.30268, "address": "ул. Маресьева, д. 40" }, "geometry": { "type": "Point", "coordinates": [ 57.14757, 50.30268 ] } },
{ "type": "Feature", "properties": { "Unnamed: 0": 63, "address_geocoded": "улица Мухтара Ауэзова 56, Атырау, Қазақстан", "displayLongitude": 51.90923, "displayLatitude": 47.08915, "address": "пр. Ауэзова, д. 56" }, "geometry": { "type": "Point", "coordinates": [ 51.90923, 47.08915 ] } },
{ "type": "Feature", "properties": { "Unnamed: 0": 64, "address_geocoded": "улица Мусы Баймуханова 52, Атырау, Қазақстан", "displayLongitude": 51.93709, "displayLatitude": 47.12874, "address": "ул. Баймуханова, д. 3, кв. 52" }, "geometry": { "type": "Point", "coordinates": [ 51.93709, 47.12874 ] } },
{ "type": "Feature", "properties": { "Unnamed: 0": 65, "address_geocoded": "улица Мусы Баймуханова 66B, Атырау, Қазақстан", "displayLongitude": 51.95752, "displayLatitude": 47.12836, "address": "ул. Баймуханова, д. 66Б" }, "geometry": { "type": "Point", "coordinates": [ 51.95752, 47.12836 ] } },
{ "type": "Feature", "properties": { "Unnamed: 0": 66, "address_geocoded": "улица Махамбета Утемисова 98, Атырау, Қазақстан", "displayLongitude": 51.9287, "displayLatitude": 47.1137, "address": "ул. М.Утемисова, д. 98" }, "geometry": { "type": "Point", "coordinates": [ 51.9287, 47.1137 ] } },
{ "type": "Feature", "properties": { "Unnamed: 0": 67, "address_geocoded": "улица Каныша Сатпаева 32, Атырау, Қазақстан", "displayLongitude": 51.90345, "displayLatitude": 47.10479, "address": "ул. Сатпаева, д. 32, кв. 67" }, "geometry": { "type": "Point", "coordinates": [ 51.90345, 47.10479 ] } },
{ "type": "Feature", "properties": { "Unnamed: 0": 68, "address_geocoded": "улица Сырыма Датова 11, Атырау, Қазақстан", "displayLongitude": 51.92796, "displayLatitude": 47.09689, "address": "ул. С.Датова, д. 11" }, "geometry": { "type": "Point", "coordinates": [ 51.92796, 47.09689 ] } },
{ "type": "Feature", "properties": { "Unnamed: 0": 69, "address_geocoded": "улица Алматинская 132, Еңбекшіқазақ ауданы, Қазақстан", "displayLongitude": 77.46908, "displayLatitude": 43.35541, "address": "ул. Алматинская, д. 114\/132" }, "geometry": { "type": "Point", "coordinates": [ 77.46908, 43.35541 ] } },
{ "type": "Feature", "properties": { "Unnamed: 0": 70, "address_geocoded": "проспект Алашахана 3, Жезқазған, Қазақстан", "displayLongitude": 67.71245, "displayLatitude": 47.80396, "address": "пр. Алашахана, д. 3" }, "geometry": { "type": "Point", "coordinates": [ 67.71245, 47.80396 ] } },
{ "type": "Feature", "properties": { "Unnamed: 0": 71, "address_geocoded": "улица Омарова 9, Жезқазған, Қазақстан", "displayLongitude": 67.71261, "displayLatitude": 47.79063, "address": "ул. Омарова, д. 9" }, "geometry": { "type": "Point", "coordinates": [ 67.71261, 47.79063 ] } },
{ "type": "Feature", "properties": { "Unnamed: 0": 72, "address_geocoded": "улица Сакена Сейфуллина 17, Жезқазған, Қазақстан", "displayLongitude": 67.70233, "displayLatitude": 47.79204, "address": "ул. Сейфуллина, д. 53, кв. 17" }, "geometry": { "type": "Point", "coordinates": [ 67.70233, 47.79204 ] } },
{ "type": "Feature", "properties": { "Unnamed: 0": 73, "address_geocoded": "микрорайон 3 6, Қапшағай, Қазақстан", "displayLongitude": 77.05649, "displayLatitude": 43.85255, "address": "3 мкр-н, д. 6" }, "geometry": { "type": "Point", "coordinates": [ 77.05649, 43.85255 ] } },
{ "type": "Feature", "properties": { "Unnamed: 0": 74, "address_geocoded": "проспект Нуркена Абдирова 19, Қарағанды, Қазақстан", "displayLongitude": 73.10033, "displayLatitude": 49.80471, "address": "р-н им. Казыбек би, пр. Н.Абдирова, д. 19" }, "geometry": { "type": "Point", "coordinates": [ 73.10033, 49.80471 ] } },
{ "type": "Feature", "properties": { "Unnamed: 0": 75, "address_geocoded": "проспект Сакена Сейфуллина 7, Қарағанды, Қазақстан", "displayLongitude": 73.06556, "displayLatitude": 49.80634, "address": "р-н им. Казыбек би, пр. Сакена Сейфуллина, д. 7, кв. 9" }, "geometry": { "type": "Point", "coordinates": [ 73.06556, 49.80634 ] } },
{ "type": "Feature", "properties": { "Unnamed: 0": 76, "address_geocoded": "микрорайон Степной 3-й 8\/2, Қарағанды, Қазақстан", "displayLongitude": 73.15346, "displayLatitude": 49.78944, "address": "р-н Казыбек би, мкр. Степной-3, д. 8\/2" }, "geometry": { "type": "Point", "coordinates": [ 73.15346, 49.78944 ] } },
{ "type": "Feature", "properties": { "Unnamed: 0": 77, "address_geocoded": "проспект Бухар-Жырау 63\/2, Қарағанды, Қазақстан", "displayLongitude": 73.08966, "displayLatitude": 49.79898, "address": "р-н Казыбек би, пр. Бухар жырау, д. 63\/2" }, "geometry": { "type": "Point", "coordinates": [ 73.08966, 49.79898 ] } },
{ "type": "Feature", "properties": { "Unnamed: 0": 78, "address_geocoded": "улица Алиханова 16, Қарағанды, Қазақстан", "displayLongitude": 73.09061, "displayLatitude": 49.80782, "address": "р-н Казыбек би, ул. Алиханова, д. 16" }, "geometry": { "type": "Point", "coordinates": [ 73.09061, 49.80782 ] } },
{ "type": "Feature", "properties": { "Unnamed: 0": 79, "address_geocoded": "микрорайон 12-й 9A, Қарағанды, Қазақстан", "displayLongitude": 73.20067, "displayLatitude": 49.89635, "address": "р-н Октябрьский, 12 мкр-н, д. 9а" }, "geometry": { "type": "Point", "coordinates": [ 73.20067, 49.89635 ] } },
{ "type": "Feature", "properties": { "Unnamed: 0": 80, "address_geocoded": "улица Карла Маркса 5\/1, Қарағанды, Қазақстан", "displayLongitude": 73.18966, "displayLatitude": 49.85205, "address": "р-н Октябрьский, ул. К.Маркса, д. 5\/1" }, "geometry": { "type": "Point", "coordinates": [ 73.18966, 49.85205 ] } },
{ "type": "Feature", "properties": { "Unnamed: 0": 81, "address_geocoded": "улица Караменде Би 4, Балқаш, Қазақстан", "displayLongitude": 74.97524, "displayLatitude": 46.84233, "address": "ул. Караменде би, д. 4" }, "geometry": { "type": "Point", "coordinates": [ 74.97524, 46.84233 ] } },
{ "type": "Feature", "properties": { "Unnamed: 0": 82, "address_geocoded": "улица Сабита Муканова 3, Қарағанды, Қазақстан", "displayLongitude": 73.14523, "displayLatitude": 49.77022, "address": "ул. Муканова, д. 3" }, "geometry": { "type": "Point", "coordinates": [ 73.14523, 49.77022 ] } },
{ "type": "Feature", "properties": { "Unnamed: 0": 83, "address_geocoded": "улица Карасай батыра 25, Қарасай ауданы, Қазақстан", "displayLongitude": 76.62298, "displayLatitude": 43.20009, "address": "ул. Карасай батыра, д. 25" }, "geometry": { "type": "Point", "coordinates": [ 76.62298, 43.20009 ] } },
{ "type": "Feature", "properties": { "Unnamed: 0": 84, "address_geocoded": "улица Еркина Ауельбекова 115, Көкшетау, Қазақстан", "displayLongitude": 69.38516, "displayLatitude": 53.28372, "address": "ул. Ауельбекова, д. 115" }, "geometry": { "type": "Point", "coordinates": [ 69.38516, 53.28372 ] } },
{ "type": "Feature", "properties": { "Unnamed: 0": 85, "address_geocoded": "проспект Аль-Фараби 119, Қостанай, Қазақстан", "displayLongitude": 63.61369, "displayLatitude": 53.2235, "address": "пр. Аль-Фараби, д. 119" }, "geometry": { "type": "Point", "coordinates": [ 63.61369, 53.2235 ] } },
{ "type": "Feature", "properties": { "Unnamed: 0": 86, "address_geocoded": "проспект Аль-Фараби 65, Қостанай, Қазақстан", "displayLongitude": 63.63676, "displayLatitude": 53.2114, "address": "пр. Аль-Фараби, д. 65" }, "geometry": { "type": "Point", "coordinates": [ 63.63676, 53.2114 ] } },
{ "type": "Feature", "properties": { "Unnamed: 0": 87, "address_geocoded": "улица Ыбырая Алтынсарина 121, Қостанай, Қазақстан", "displayLongitude": 63.63788, "displayLatitude": 53.21566, "address": "ул. Алтынсарина, д. 121" }, "geometry": { "type": "Point", "coordinates": [ 63.63788, 53.21566 ] } },
{ "type": "Feature", "properties": { "Unnamed: 0": 88, "address_geocoded": "улица Победы 85, Қостанай, Қазақстан", "displayLongitude": 63.64008, "displayLatitude": 53.21934, "address": "ул. Победы, 85" }, "geometry": { "type": "Point", "coordinates": [ 63.64008, 53.21934 ] } },
{ "type": "Feature", "properties": { "Unnamed: 0": 89, "address_geocoded": "проспект Абая 38, Қызылорда, Қазақстан", "displayLongitude": 65.5132, "displayLatitude": 44.82717, "address": "пр. Абая, д. 38" }, "geometry": { "type": "Point", "coordinates": [ 65.5132, 44.82717 ] } },
{ "type": "Feature", "properties": { "Unnamed: 0": 90, "address_geocoded": "проспект Абая 50, Қызылорда, Қазақстан", "displayLongitude": 65.51598, "displayLatitude": 44.82354, "address": "пр. Абая Кунанбаева, д. 50" }, "geometry": { "type": "Point", "coordinates": [ 65.51598, 44.82354 ] } },
{ "type": "Feature", "properties": { "Unnamed: 0": 91, "address_geocoded": "улица Аскара Токмагамбетова 25, Қызылорда, Қазақстан", "displayLongitude": 65.50034, "displayLatitude": 44.84509, "address": "ул. А.Токмагамбетова, д. 25" }, "geometry": { "type": "Point", "coordinates": [ 65.50034, 44.84509 ] } },
{ "type": "Feature", "properties": { "Unnamed: 0": 92, "address_geocoded": "улица Аскара Токмагамбетова 1, Қызылорда, Қазақстан", "displayLongitude": 65.49254, "displayLatitude": 44.84244, "address": "ул. Токмагамбетова, д. 1" }, "geometry": { "type": "Point", "coordinates": [ 65.49254, 44.84244 ] } },
{ "type": "Feature", "properties": { "Unnamed: 0": 93, "address_geocoded": "улица Михаила Лермонтова 84, Павлодар, Қазақстан", "displayLongitude": 76.95275, "displayLatitude": 52.29119, "address": "ул. Лермонтова, д. 82" }, "geometry": { "type": "Point", "coordinates": [ 76.95275, 52.29119 ] } },
{ "type": "Feature", "properties": { "Unnamed: 0": 94, "address_geocoded": "улица Анатолия Луначарского 9, Павлодар, Қазақстан", "displayLongitude": 76.94054, "displayLatitude": 52.27675, "address": "ул. Луначарского, д. 9" }, "geometry": { "type": "Point", "coordinates": [ 76.94054, 52.27675 ] } },
{ "type": "Feature", "properties": { "Unnamed: 0": 95, "address_geocoded": "улица Толстого 86, Павлодар, Қазақстан", "displayLongitude": 76.97096, "displayLatitude": 52.2763, "address": "ул. Толстого, д. 86" }, "geometry": { "type": "Point", "coordinates": [ 76.97096, 52.2763 ] } },
{ "type": "Feature", "properties": { "Unnamed: 0": 96, "address_geocoded": "улица Султанмахмута Торайгырова 48, Павлодар, Қазақстан", "displayLongitude": 76.94548, "displayLatitude": 52.29715, "address": "ул. Торайгырова, д. 48\/1" }, "geometry": { "type": "Point", "coordinates": [ 76.94548, 52.29715 ] } },
{ "type": "Feature", "properties": { "Unnamed: 0": 97, "address_geocoded": "улица Интернациональная 56, Қызылжар ауданы, Қазақстан", "displayLongitude": 69.14233, "displayLatitude": 54.86829, "address": "ул. Интернациональная, д. 56" }, "geometry": { "type": "Point", "coordinates": [ 69.14233, 54.86829 ] } },
{ "type": "Feature", "properties": { "Unnamed: 0": 98, "address_geocoded": "улица Конституции Казахстана 39, Қызылжар ауданы, Қазақстан", "displayLongitude": 69.13728, "displayLatitude": 54.86406, "address": "ул. Конституции Казахстана, д. 39" }, "geometry": { "type": "Point", "coordinates": [ 69.13728, 54.86406 ] } },
{ "type": "Feature", "properties": { "Unnamed: 0": 99, "address_geocoded": "улица Мира 61, Петропавловский район, Россия, 397670", "displayLongitude": 40.8663399, "displayLatitude": 50.12987, "address": "ул. Мира, д. 134" }, "geometry": { "type": "Point", "coordinates": [ 40.8663399, 50.12987 ] } },
{ "type": "Feature", "properties": { "Unnamed: 0": 100, "address_geocoded": "улица 50 лет октября 60A, Рудный, Қазақстан", "displayLongitude": 63.09259, "displayLatitude": 52.96923, "address": "ул. 50 лет Октября, д. 60а" }, "geometry": { "type": "Point", "coordinates": [ 63.09259, 52.96923 ] } },
{ "type": "Feature", "properties": { "Unnamed: 0": 101, "address_geocoded": "проспект Каныша Сатпаева 119, Сәтбаев, Қазақстан", "displayLongitude": 67.52656, "displayLatitude": 47.9072, "address": "пр. Сатпаева, д. 119, кв. 2" }, "geometry": { "type": "Point", "coordinates": [ 67.52656, 47.9072 ] } },
{ "type": "Feature", "properties": { "Unnamed: 0": 102, "address_geocoded": "улица Шокана Уалиханова 100, Семей, Қазақстан", "displayLongitude": 80.26108, "displayLatitude": 50.41144, "address": "ул. Валиханова, д. 100\/112" }, "geometry": { "type": "Point", "coordinates": [ 80.26108, 50.41144 ] } },
{ "type": "Feature", "properties": { "Unnamed: 0": 103, "address_geocoded": "улица Шокана Уалиханова 100B, Семей, Қазақстан", "displayLongitude": 80.26108, "displayLatitude": 50.41144, "address": "ул. Валиханова, д. 100Б" }, "geometry": { "type": "Point", "coordinates": [ 80.26108, 50.41144 ] } },
{ "type": "Feature", "properties": { "Unnamed: 0": 104, "address_geocoded": "улица Михаила Глинки 47A, Семей, Қазақстан", "displayLongitude": 80.20983, "displayLatitude": 50.39779, "address": "ул. Глинки, д. 47а" }, "geometry": { "type": "Point", "coordinates": [ 80.20983, 50.39779 ] } },
{ "type": "Feature", "properties": { "Unnamed: 0": 105, "address_geocoded": "улица Александра Засядко 131, Семей, Қазақстан", "displayLongitude": 80.25753, "displayLatitude": 50.42268, "address": "ул. Засядко, д. 88, кв. 131" }, "geometry": { "type": "Point", "coordinates": [ 80.25753, 50.42268 ] } },
{ "type": "Feature", "properties": { "Unnamed: 0": 106, "address_geocoded": "микрорайон Молодёжный 40, Талдықорған, Қазақстан", "displayLongitude": 78.35619, "displayLatitude": 45.0001, "address": "мкр. Молодежный, д. 40, кв. 2" }, "geometry": { "type": "Point", "coordinates": [ 78.35619, 45.0001 ] } },
{ "type": "Feature", "properties": { "Unnamed: 0": 107, "address_geocoded": "улица Абылай Хана 141, Талдықорған, Қазақстан", "displayLongitude": 78.38779, "displayLatitude": 45.01505, "address": "ул. Абылай хана, д. 141" }, "geometry": { "type": "Point", "coordinates": [ 78.38779, 45.01505 ] } },
{ "type": "Feature", "properties": { "Unnamed: 0": 108, "address_geocoded": "улица Гали Орманова 5, Талдықорған, Қазақстан", "displayLongitude": 78.36899, "displayLatitude": 45.01827, "address": "ул. Гали Орманова, д. 5, кв. 1" }, "geometry": { "type": "Point", "coordinates": [ 78.36899, 45.01827 ] } },
{ "type": "Feature", "properties": { "Unnamed: 0": 109, "address_geocoded": "проспект Абая 134, Жамбыл ауданы, Қазақстан", "displayLongitude": 71.37759, "displayLatitude": 42.89621, "address": "пр. Абая, д. 134, кв. 50" }, "geometry": { "type": "Point", "coordinates": [ 71.37759, 42.89621 ] } },
{ "type": "Feature", "properties": { "Unnamed: 0": 110, "address_geocoded": "улица Казыбек Би 142, Жамбыл ауданы, Қазақстан", "displayLongitude": 71.36328, "displayLatitude": 42.89784, "address": "ул. Казыбек би, д. 142" }, "geometry": { "type": "Point", "coordinates": [ 71.36328, 42.89784 ] } },
{ "type": "Feature", "properties": { "Unnamed: 0": 111, "address_geocoded": "улица Привокзальная 7B, Жамбыл ауданы, Қазақстан", "displayLongitude": 71.37945, "displayLatitude": 42.87024, "address": "ул. Привокзальная, д. 7Б" }, "geometry": { "type": "Point", "coordinates": [ 71.37945, 42.87024 ] } },
{ "type": "Feature", "properties": { "Unnamed: 0": 112, "address_geocoded": "проспект Металлургов 21, Теміртау, Қазақстан", "displayLongitude": 72.96841, "displayLatitude": 50.05598, "address": "пр. Металлургов, д. 21" }, "geometry": { "type": "Point", "coordinates": [ 72.96841, 50.05598 ] } },
{ "type": "Feature", "properties": { "Unnamed: 0": 113, "address_geocoded": "проспект Мира 92A, Теміртау, Қазақстан", "displayLongitude": 72.96286, "displayLatitude": 50.05205, "address": "пр. Мира, д. 92а" }, "geometry": { "type": "Point", "coordinates": [ 72.96286, 50.05205 ] } },
{ "type": "Feature", "properties": { "Unnamed: 0": 114, "address_geocoded": "проспект Тауке Хана 284, 161200 Түркістан, Қазақстан", "displayLongitude": 68.26276, "displayLatitude": 43.30089, "address": "пр. Тауке Хана, д. 284" }, "geometry": { "type": "Point", "coordinates": [ 68.26276, 43.30089 ] } },
{ "type": "Feature", "properties": { "Unnamed: 0": 115, "address_geocoded": "проспект Абулхайыр Хана 157, Орал, Қазақстан", "displayLongitude": 51.41602, "displayLatitude": 51.2437, "address": "пр. Абылхаир хана, д. 157" }, "geometry": { "type": "Point", "coordinates": [ 51.41602, 51.2437 ] } },
{ "type": "Feature", "properties": { "Unnamed: 0": 116, "address_geocoded": "улица Достык 23\/1, Орал, Қазақстан", "displayLongitude": 51.43915, "displayLatitude": 51.26308, "address": "пр. Достык, д. 175А" }, "geometry": { "type": "Point", "coordinates": [ 51.43915, 51.26308 ] } },
{ "type": "Feature", "properties": { "Unnamed: 0": 117, "address_geocoded": "проспект Евразия 190, Орал, Қазақстан", "displayLongitude": 51.39278, "displayLatitude": 51.22078, "address": "пр. Евразия, д. 190" }, "geometry": { "type": "Point", "coordinates": [ 51.39278, 51.22078 ] } },
{ "type": "Feature", "properties": { "Unnamed: 0": 118, "address_geocoded": "проспект Независимости 17, Риддер, Қазақстан", "displayLongitude": 83.50477, "displayLatitude": 50.33678, "address": "пр. Независимости, д. 17" }, "geometry": { "type": "Point", "coordinates": [ 83.50477, 50.33678 ] } },
{ "type": "Feature", "properties": { "Unnamed: 0": 119, "address_geocoded": "улица Виктора Чернова 46, Өскемен, Қазақстан", "displayLongitude": 82.60203, "displayLatitude": 49.9735, "address": "ул. Антона Чехова, д. 46" }, "geometry": { "type": "Point", "coordinates": [ 82.60203, 49.9735 ] } },
{ "type": "Feature", "properties": { "Unnamed: 0": 120, "address_geocoded": "улица Виктора Виноградова 12, Өскемен, Қазақстан", "displayLongitude": 82.5862, "displayLatitude": 49.96342, "address": "ул. Виноградова, д. 12" }, "geometry": { "type": "Point", "coordinates": [ 82.5862, 49.96342 ] } },
{ "type": "Feature", "properties": { "Unnamed: 0": 121, "address_geocoded": "улица Казахстан 65, Өскемен, Қазақстан", "displayLongitude": 82.6299, "displayLatitude": 49.95159, "address": "ул. Казахстан, д. 65" }, "geometry": { "type": "Point", "coordinates": [ 82.6299, 49.95159 ] } },
{ "type": "Feature", "properties": { "Unnamed: 0": 122, "address_geocoded": "улица Дмитрия Крылова 73, Өскемен, Қазақстан", "displayLongitude": 82.6125, "displayLatitude": 49.94627, "address": "ул. Крылова, д. 73" }, "geometry": { "type": "Point", "coordinates": [ 82.6125, 49.94627 ] } },
{ "type": "Feature", "properties": { "Unnamed: 0": 123, "address_geocoded": "Советская улица 38, Алтайский район, Россия", "displayLongitude": 85.3363, "displayLatitude": 51.93433, "address": "ул. Советская, д. 38" }, "geometry": { "type": "Point", "coordinates": [ 85.3363, 51.93433 ] } },
{ "type": "Feature", "properties": { "Unnamed: 0": 124, "address_geocoded": "проспект Абая Кунанбаева 58, Шахтинск, Қазақстан", "displayLongitude": 72.59882, "displayLatitude": 49.70298, "address": "пр. Абая Кунанбаева, д. 58" }, "geometry": { "type": "Point", "coordinates": [ 72.59882, 49.70298 ] } },
{ "type": "Feature", "properties": { "Unnamed: 0": 125, "address_geocoded": "улица Шокана Уалиханова 11, Шымкент, Қазақстан", "displayLongitude": 69.54195, "displayLatitude": 42.28939, "address": "11 мкр-н, ул. Уалиханова, д. 219" }, "geometry": { "type": "Point", "coordinates": [ 69.54195, 42.28939 ] } },
{ "type": "Feature", "properties": { "Unnamed: 0": 126, "address_geocoded": "микрорайон 16 43, Шымкент, Қазақстан", "displayLongitude": 69.6368, "displayLatitude": 42.33704, "address": "16 мкр-н, д. 43, кв. 2" }, "geometry": { "type": "Point", "coordinates": [ 69.6368, 42.33704 ] } },
{ "type": "Feature", "properties": { "Unnamed: 0": 127, "address_geocoded": "микрорайон Спортивный 6, Шымкент, Қазақстан", "displayLongitude": 69.59869, "displayLatitude": 42.33388, "address": "мкр. Спортивный, д. 6, кв. 57" }, "geometry": { "type": "Point", "coordinates": [ 69.59869, 42.33388 ] } },
{ "type": "Feature", "properties": { "Unnamed: 0": 128, "address_geocoded": "проспект Республики 1, Шымкент, Қазақстан", "displayLongitude": 69.5870155, "displayLatitude": 42.3201629, "address": "пр. Республики, д. 1" }, "geometry": { "type": "Point", "coordinates": [ 69.5870155, 42.3201629 ] } },
{ "type": "Feature", "properties": { "Unnamed: 0": 129, "address_geocoded": "улица Ж. Адырбекова 159, Шымкент, Қазақстан", "displayLongitude": 69.61985, "displayLatitude": 42.33469, "address": "ул. Адырбекова, д. 178А" }, "geometry": { "type": "Point", "coordinates": [ 69.61985, 42.33469 ] } },
{ "type": "Feature", "properties": { "Unnamed: 0": 130, "address_geocoded": "улица Кабанбай батыра 12, Шымкент, Қазақстан", "displayLongitude": 69.60688, "displayLatitude": 42.30218, "address": "ул. Кабанбай батыра, д. 16" }, "geometry": { "type": "Point", "coordinates": [ 69.60688, 42.30218 ] } },
{ "type": "Feature", "properties": { "Unnamed: 0": 131, "address_geocoded": "улица Казыбек Би 18, Шымкент, Қазақстан", "displayLongitude": 69.60195, "displayLatitude": 42.31272, "address": "ул. Казыбек би, д. 18" }, "geometry": { "type": "Point", "coordinates": [ 69.60195, 42.31272 ] } },
{ "type": "Feature", "properties": { "Unnamed: 0": 132, "address_geocoded": "улица Шамшы Калдаякова 4\/3, Шымкент, Қазақстан", "displayLongitude": 69.58123, "displayLatitude": 42.30997, "address": "ул. Калдаякова, д. 4\/3" }, "geometry": { "type": "Point", "coordinates": [ 69.58123, 42.30997 ] } },
{ "type": "Feature", "properties": { "Unnamed: 0": 133, "address_geocoded": "улица А. Саыкбаева 49, 160100 Арыс, Қазақстан", "displayLongitude": 68.8072751, "displayLatitude": 42.4253378, "address": "ул. Салыкбаева, д. 10" }, "geometry": { "type": "Point", "coordinates": [ 68.8072751, 42.4253378 ] } },
{ "type": "Feature", "properties": { "Unnamed: 0": 134, "address_geocoded": "улица Мухтара Ауэзова 34, 021700 Бурабай ауданы, Қазақстан", "displayLongitude": 70.21287, "displayLatitude": 52.94246, "address": "ул. Ауэзова, д. 34, кв. 47" }, "geometry": { "type": "Point", "coordinates": [ 70.21287, 52.94246 ] } },
{ "type": "Feature", "properties": { "Unnamed: 0": 135, "address_geocoded": "улица Мухтара Ауэзова 30, Екібастұз, Қазақстан", "displayLongitude": 75.32057, "displayLatitude": 51.72949, "address": "ул. Ауэзова, д. 30" }, "geometry": { "type": "Point", "coordinates": [ 75.32057, 51.72949 ] } }
]
}
