id,address1,address2,latitude,longitude,status,city
110706,"мкр. Авангард-2, д. 1","супермаркет ""Идеал"", напротив центрального офиса ""Kcell"", справа от входа, банкоматная зона",47.0967,51.8746,"{'is_working': True, 'additional_info': []}",Атырау
110760,"мкр. Авангард-2, д. 1","супермаркет ""Идеал"", справа от входа, банкоматная зона, напротив центрального офиса ""Kcell""",47.0964950806728,51.8744499155767,"{'is_working': True, 'additional_info': []}",Атырау
110776,"мкр. Авангард-2, д. 10","магазин ""Аяна"", вдоль дороги, напротив дет. сада",47.0973886460089,51.8779211323224,"{'is_working': True, 'additional_info': []}",Атырау
40940,"мкр. Авангард-2, д. 11Б, блок 6","возле остановки ""Мерей"" супермаркет ""Анвар"", главный вход, в тамбуре",47.0989,51.8776,"{'is_working': True, 'additional_info': []}",Атырау
41640,"мкр. Авангард-3, д. 31","супермаркет ""Ярмарка""",47.0933,51.8772,"{'is_working': True, 'additional_info': []}",Атырау
110740,"мкр. Авангард-3, д. 40","магазин ""Айнур"", возле магазина ""Технодом"" и кинотеатра ""Арсенал""",47.0941340400098,51.8829079099814,"{'is_working': True, 'additional_info': []}",Атырау
110730,"мкр. Авангард-3, д. 73","магазин ""Алишер"", напротив католической церкви",47.0923,51.8793,"{'is_working': True, 'additional_info': []}",Атырау
109803,"мкр. Авангард-3, ул. Владимирского, д. 32","уг. ул. Курмангазы, возле магазина ""Sulpak""",47.09357,51.87814,"{'is_working': True, 'additional_info': []}",Атырау
109896,"мкр. Авангард-3, ул. Владимирского, д. 32","уг. ул. Курмангазы, возле магазина ""Sulpak""",47.09357,51.87814,"{'is_working': True, 'additional_info': []}",Атырау
42581,"мкр. Авангард, ул. Курмангазы, д. 26","ТД Коктем, овощной отдел",47.0943,51.8732,"{'is_working': True, 'additional_info': []}",Атырау
41630,"мкр. Авангард, ул. Курмангазы, д. 26","ТД Коктем, старое здание, 1 этаж, в холле, справа от входа",47.0956,51.8729,"{'is_working': True, 'additional_info': []}",Атырау
42461,"мкр. Авангард, ул. Курмангазы, д. 26","ТД Коктем (новое здание), банкоматная зона",47.0955,51.8741,"{'is_working': True, 'additional_info': []}",Атырау
110759,"мкр. Алмагуль, д. 1","супермаркет ""Лидер"", напротив поликлиники №7, возле автомойки, слева от входа",47.1188009945264,51.9403855529608,"{'is_working': True, 'additional_info': []}",Атырау
110414,"мкр. Алмагуль, д. 18А","магазин ""Табыс"", за рестораном  ""Барбарис""",47.1195,51.9453,"{'is_working': True, 'additional_info': []}",Атырау
110664,"мкр. Алмагуль, д. 5А","ТЦ Багдаулет, справа от входа, в тамбуре",47.1207410675183,51.9400627699991,"{'is_working': True, 'additional_info': []}",Атырау
110739,"мкр. Алмагуль, д. 7А","магазин ""Сания"", возле Роддома",47.1208403886718,51.9429557318404,"{'is_working': True, 'additional_info': []}",Атырау
110411,"мкр. Атырау, д. 5А","минимаркет ""Ак босага"", возле моста",47.1322,51.9159,"{'is_working': True, 'additional_info': []}",Атырау
109100,"мкр. Атырау, проезд-1, д. 12","АЗС ""РБ Ойл"", возле остановки ""Огородное""",47.1375,51.9375,"{'is_working': True, 'additional_info': []}",Атырау
110782,"мкр. Атырау, ул. Атырау, д. 327Б","магазин ""Аружан"", возле дренажного моста",47.1400638750106,51.9107293623334,"{'is_working': True, 'additional_info': []}",Атырау
110731,"мкр. Балауса-1, д. 129","магазин ""Багдаулет"", напротив школы ""Жумыскер""",47.065644649788,51.8495662818305,"{'is_working': True, 'additional_info': []}",Атырау
110758,"мкр. Балауса, ул. 37, д. 97","остановка ""Балауса"", супермаркет ""Лидер"", справа от главного входа",47.058,51.8328,"{'is_working': True, 'additional_info': []}",Атырау
40924,"мкр. Водников, ул. 1 Мая, д. 24 А","минимаркет ""Бегіс"", по улице Первомайская",47.0602,51.8941,"{'is_working': True, 'additional_info': []}",Атырау
40587,"мкр. Жеруйык, ул. Маденова, д. 1А","рынок ""Сарайшык"", перед входом в продуктовый павильон",47.1066,51.8722,"{'is_working': True, 'additional_info': []}",Атырау
42282,"мкр. Жилгородок, ул. Ауезова, д. 25","напротив спорткомплекс ""Мунайшы""",47.0947,51.9053,"{'is_working': True, 'additional_info': []}",Атырау
110775,"мкр. Жулдыз, ул. 6, уч-к 10","магазин ""Галымжан"", возле супермаркета ""Такси""",47.1540632697333,51.9749231822,"{'is_working': True, 'additional_info': []}",Атырау
110738,"мкр. Жулдыз, ул. 6-я, уч-к 10А","магазин ""Галымжан"", вдоль центр. дороги, справо у входа",47.1540193579294,51.974901724482,"{'is_working': True, 'additional_info': []}",Атырау
40839,"мкр. Кок-Арна, д. 55","магазин ""Береке"", у остановки ""Школа""",47.0562,51.8709,"{'is_working': True, 'additional_info': []}",Атырау
110600,"мкр. Лесхоз, д. 54","магазин ""Нур Алия"", за отделением БЦК",47.0974,51.8733,"{'is_working': True, 'additional_info': []}",Атырау
110741,"мкр. Лесхоз, ул. 7, д. 15","магазин ""Сауле"", возле дренажного моста, рядом с ""Toyota Центр""",47.1038,51.8723,"{'is_working': True, 'additional_info': []}",Атырау
110689,"мкр. Мясокомбинат, д. 102","магазин ""Самал"", возле магазина ""Байлык""",47.119000897056,51.9584382495253,"{'is_working': True, 'additional_info': []}",Атырау
109203,"мкр. Нурсая, д. 11, кв. 35","магазин ""Самал""",47.115,51.8674,"{'is_working': True, 'additional_info': []}",Атырау
110757,"мкр. Нурсая, д. 12","супермаркет  ""Лидер"", слева от главного входа",47.116564045901,51.864488976086,"{'is_working': True, 'additional_info': []}",Атырау
42087,"мкр. Нурсая, д. 14/15","супермаркет ""Лидер"", в здании ""Модерн Сити"", банкоматная зона",47.1103,51.8648,"{'is_working': True, 'additional_info': []}",Атырау
40838,"мкр. Нурсая, д. 22",напротив свадебного салона,47.1185,51.8653,"{'is_working': True, 'additional_info': []}",Атырау
41639,"мкр. Нурсая, д. 28","магазин ""Семья""",47.1185,51.8672,"{'is_working': True, 'additional_info': []}",Атырау
110773,"мкр. Нурсая, д. 52","магазин ""Тамерлан"", конечная остановка автобуса №4",47.109957748,51.86269681,"{'is_working': True, 'additional_info': []}",Атырау
41641,"мкр. Нурсая, ул. Габдиева, д. 34 А","супермаркет ""Атаба""",47.1133,51.8584,"{'is_working': True, 'additional_info': []}",Атырау
41571,"мкр. Оркен, ул. С.Шуреева, д. 95 А","магазин ""Шоколад"", напротив школы",47.0866146,51.8501809,"{'is_working': True, 'additional_info': []}",Атырау
110302,"мкр. Привокзальный-3А, д. 20","На Арбате, супермаркет ""Лидер"", справа от главного входа",47.126,51.948,"{'is_working': True, 'additional_info': []}",Атырау
110750,"мкр. Привокзальный-3А, д. 51А","магазин ""Анита"", 1 этаж, в р-не ТЦ Мурагер, возле гостиницы ""ОАЗИС""",47.1287,51.9504,"{'is_working': True, 'additional_info': []}",Атырау
110688,"мкр. Привокзальный-5, д. 11","магазин ""УшКоныр"", напротив СШ №24",47.1276,51.9429,"{'is_working': True, 'additional_info': []}",Атырау
110699,"мкр. Привокзальный-5, д. 28","супермаркет ""Идеал"", возле входа в тамбур",47.1271,51.9402,"{'is_working': True, 'additional_info': []}",Атырау
109204,"мкр. Привокзальный-5, д. 29","магазин ""Арыс""",47.1275,51.9412,"{'is_working': True, 'additional_info': []}",Атырау
110763,"мкр. Привокзальный, д. 3","ТЦ Мурагер, напротив поликлиники №3, возле второго входа",47.1297400812696,51.949297938583,"{'is_working': True, 'additional_info': []}",Атырау
110718,"мкр. Привокзальный, д. 3А","ТД Мурагер, напротив поликлиники №3, главный вход, возле лестницы",47.1298,51.9493,"{'is_working': True, 'additional_info': []}",Атырау
40939,"мкр. Привокзальный, ул. Бергалиева, д. 71","минимаркет ""Береке"", возле СШ №22",47.132,51.9444,"{'is_working': True, 'additional_info': []}",Атырау
110710,"мкр. Сарыарка, д. 40","супермаркет ""Идеал"",  возле ресторана ""Изюминка"", слева от входа, банкоматная зона",47.1084,51.9094,"{'is_working': True, 'additional_info': []}",Атырау
110703,"мкр. Сарыарка, ул. Жиембет, д. 36","супермаркет ""Лидер"",  слева от главного входа, банкоматная зона, рядом с Прокуратурой",47.0921,51.8538,"{'is_working': True, 'additional_info': []}",Атырау
109206,"мкр. Сарыкамыс, ул. 20, д. 1","АЗС ""Арна"", напротив ресторана ""Сафари""",47.093,51.8672,"{'is_working': True, 'additional_info': []}",Атырау
110608,"мкр. Тулпар, д. 74","магазин ""Тулпар"", не доезжая до Аэропорта",47.118,51.8544,"{'is_working': True, 'additional_info': []}",Атырау
110727,"мкр. Центральный, д. 8","магазин ""Казына"", возле магазина ""Квант""",47.1075,51.9252,"{'is_working': True, 'additional_info': []}",Атырау
110753,"пос. Балыкшы, ул. А.Кунанбаева, д. 17Б","ТД Жайык, главный вход, в тамбуре",47.0752,51.8845,"{'is_working': True, 'additional_info': []}",Атырау
110742,"пос. Балыкшы, ул. Кожакаева, д. 8","магазин ""Нурлан"", возле Балыкшинской поликлиники",47.0773235829439,51.88242128058,"{'is_working': True, 'additional_info': []}",Атырау
110599,пос. Геолог,"магазин ""Киякы"", возле Акимата",47.1525,51.9403,"{'is_working': True, 'additional_info': []}",Атырау
117242,"пос. Геолог, д. 26 А",конечная остановка поселка,47.1533,51.9388,"{'is_working': True, 'additional_info': []}",Атырау
110770,"пос. Геолог, ул. Агрономная, д. 50","супермаркет ""Лидер"", возле ресторана ""Алтын Орда""",47.1491095762147,51.9487761641795,"{'is_working': True, 'additional_info': []}",Атырау
110725,"пос. Геолог, ул. Сапыра жырау, д. 1","мкр. Геолог, магазин ""Болашак"", напротив АЗС №5",47.1455985658292,51.9634063012012,"{'is_working': True, 'additional_info': []}",Атырау
110734,"пос. Жумыскер, ул. Бекмагамбетова, д. 183А","магазин ""Сауле"", конечная остановка автобуса №64",47.0652994890732,51.8523315754836,"{'is_working': True, 'additional_info': []}",Атырау
110774,"пос. Томарлы, ул. Колхозная, д. 22Б","магазин ""Гулжазира""",47.167110578,51.955232267,"{'is_working': True, 'additional_info': []}",Атырау
41638,"пр. Азаттык, д. 113","супермаркет ""Атаба""",47.0908,51.9157,"{'is_working': True, 'additional_info': []}",Атырау
42281,"пр. Азаттык, д. 127","ТД Шалкыма, остановка ""Шалкыма"", возле Столовой",47.0894,51.9131,"{'is_working': True, 'additional_info': []}",Атырау
110768,"пр. Азаттык, д. 2В","супермаркет ""Идеал"", возле входа в тамбур",47.1113,51.9278,"{'is_working': True, 'additional_info': []}",Атырау
110761,"пр. Азаттык, д. 46","магазин ""Батыс-2"", остановка ""Санаторий""",47.097118435256,51.9237408708756,"{'is_working': True, 'additional_info': []}",Атырау
110705,"пр. Азаттык, д. 71","супермаркет ""Лидер"", слева от входа, возле ДВД г. Атырау, напротив ресторана ""Баку""",47.0947,51.9214,"{'is_working': True, 'additional_info': []}",Атырау
110178,"пр. Ауэзова, 56","рядом ТД ""Сауран"", ост. ""Школа""",47.08919,51.90905,"{'is_working': True, 'additional_info': []}",Атырау
110179,"пр. Ауэзова, 56","рядом ТД ""Сауран"", ост. ""Школа""",47.08919,51.90905,"{'is_working': True, 'additional_info': []}",Атырау
42344,"пр. Бейбарыс Султан, д. 1","ТЦ Дина, 2-х этажное здание, слева у входа",47.1259,51.9576,"{'is_working': True, 'additional_info': []}",Атырау
110755,"пр. Сатпаева, д. 14","супермаркет ""Анвар"", за остановкой ""Абая"", слева от главного входа",47.1048186812162,51.9095357200243,"{'is_working': True, 'additional_info': []}",Атырау
42460,"пр. Сатпаева, д. 17А",напротив ТД Онерпаз,47.1059,51.8951,"{'is_working': True, 'additional_info': []}",Атырау
40410,"пр. Сатпаева, д. 37","ТЦ Тамаша, справа от входа, в тамбуре",47.1047,51.8828,"{'is_working': True, 'additional_info': []}",Атырау
110684,"пр. Сатпаева, д. 40","ТЦ Онерпаз, напротив ТРЦ Атырау, 1 этаж, возле входа в тамбур",47.1043004625514,51.8957147607536,"{'is_working': True, 'additional_info': []}",Атырау
42195,"пр. С.Бейбарыса, д. 1","рынок Дина, здание ""Ковры"", у входа, рядом с лестницей",47.1247,51.9552,"{'is_working': True, 'additional_info': []}",Атырау
110762,"пр. С.Бейбарыса, д. 1","ТЦ Дина, посудный павильон, слева у входа",47.1257,51.9576,"{'is_working': True, 'additional_info': []}",Атырау
40740,"пр. С.Бейбарыса, д. 1","ТЦ Дина, блок А, 2 этаж",47.1257,51.9563,"{'is_working': True, 'additional_info': []}",Атырау
41636,"пр. С.Бейбарыса, д. 1","ТРЦ Дина, блок Автомир",47.1231,51.9547,"{'is_working': True, 'additional_info': []}",Атырау
40840,"пр. С.Бейбарыса, д. 1","ТЦ Дина, ковровый блок, у входа налево",47.1248,51.9552,"{'is_working': True, 'additional_info': []}",Атырау
42196,"пр. С.Бейбарыса, д. 1","рынок Дина, новое здание,справа от входа",47.1239,51.9567,"{'is_working': True, 'additional_info': []}",Атырау
110764,"пр. С.Бейбарыса, д. 386","магазин ""Зибаш"", по старой аэропортовской трассе",47.119529180228,51.884340764418,"{'is_working': True, 'additional_info': []}",Атырау
110767,"с. Ак Жайык, ул. Нуржанова, д. 8А","супермаркет ""Лидер"", в сторону пос. Дамба, напротив ресторана ""Хан Шатыр""",47.0676865147011,51.878067776508,"{'is_working': True, 'additional_info': []}",Атырау
110780,"Северная Промышленная Зона, д. 46 А","АЗС ""РБ""",47.143933071386,51.8905168357307,"{'is_working': True, 'additional_info': []}",Атырау
42259,"с. Томарлы, мкр. Жулдыз, ул. 13, стр. 11","супермаркет ""Арман"", возле входа, возле трассы Атырау- Индер",47.1545,51.9721,"{'is_working': True, 'additional_info': []}",Атырау
110041,"трасса Дамба, 5 км, д. 54","минимаркет ""Ар-Ай"", возле р-на Курилкино",47.0376,51.8517,"{'is_working': True, 'additional_info': []}",Атырау
110694,"ул. Абая, д. 15","магазин ""Эльхан"", напротив Драматического театра",47.105,51.9345,"{'is_working': True, 'additional_info': []}",Атырау
40938,"ул. Абая Кунанбаева, д. 17Б","ТД Жайык, главный вход, в тамбуре",47.0752,51.8847,"{'is_working': True, 'additional_info': []}",Атырау
110783,"ул. Актауская, д. 14","магазин ""Айбек"", в сторону села Бирлик",47.1425,51.9778,"{'is_working': True, 'additional_info': []}",Атырау
110617,"ул. А.Кунанбаева, д. 17Б","ТД Жайык, главный вход, в тамбуре",47.0752,51.8847,"{'is_working': True, 'additional_info': []}",Атырау
110737,"ул. А.Кунанбаева, д. 30","магазин ""Канат"", остановка ""Ландыш""",47.0778,51.8889,"{'is_working': True, 'additional_info': []}",Атырау
110729,"ул. Ахмета Жубанова, д. 67","магазин ""Азимут"", в р-не ТЭЦ",47.0896,51.9424,"{'is_working': True, 'additional_info': []}",Атырау
110052,"ул. Баймуханова, 66Б","уг. ул. Сатыбалдиева, в здании ТД ""Лимон"", рядом с ж/д Вокзалом",47.12836,51.957529,"{'is_working': True, 'additional_info': []}",Атырау
109943,"ул. Баймуханова, 66Б","уг. ул. Сатыбалдиева, в здании ТД ""Лимон"", рядом с ж/д Вокзалом",47.12836,51.957529,"{'is_working': True, 'additional_info': []}",Атырау
42198,"ул. Баймуханова, д. 43","за ост. ""Привокзальный"", магазин Сахара, у входа",47.1299,51.9439,"{'is_working': True, 'additional_info': []}",Атырау
110637,"ул. Баймуханова, д. 45А","магазин ""Sulpak"", за АЗС ""Gelios""",47.13,51.9401,"{'is_working': True, 'additional_info': []}",Атырау
41910,"ул. Баймуханова, д. 58/2","СТО ""AUTO SERVICE""",47.1297,51.9385,"{'is_working': True, 'additional_info': ['Не печатает чек']}",Атырау
109205,"ул. Баймуханова, д. 62В","магазин ""Шырак"", возле ресторана ""Акжол у Гаджи""",47.1307,51.9475,"{'is_working': True, 'additional_info': []}",Атырау
110702,"ул. Валиханова, д. 51","магазин ""Окас"", возле школы",47.1088,51.9408,"{'is_working': True, 'additional_info': []}",Атырау
110749,"ул. Владимирского, б/н","уг. ул. Курмангазы, магазин ""Sulpak"", конечная остановка ""Авангард""",47.0943,51.877,"{'is_working': True, 'additional_info': []}",Атырау
110766,"ул. Гумарова, д. 4","супермаркет ""Лидер"", 1 этаж, банкоматная зона",47.1009214919338,51.8836653225898,"{'is_working': True, 'additional_info': []}",Атырау
109144,"ул. Досмухамедова, д. 33","магазин ""Иверия"", на территории Успенского Собора",47.115,51.9091,"{'is_working': True, 'additional_info': []}",Атырау
110777,"ул. Дутбаева, д. 36","магазин ""Ел-Асыл"", возле ресторана ""Асылгүл""",47.1369,51.9054,"{'is_working': True, 'additional_info': []}",Атырау
42383,"ул. Еркинова, д. 75","возле гостиницы ""Гаухар"", у входа справа",47.1245,51.9504,"{'is_working': True, 'additional_info': []}",Атырау
110722,"ул. Ерниязова, д. 12Б","магазин ""Ерназар""",47.1091421764062,51.8974252067681,"{'is_working': True, 'additional_info': []}",Атырау
110636,"ул. Ерниязова, д. 2А","магазин ""Майра"", напротив СШ №5",47.1117,51.8967,"{'is_working': True, 'additional_info': []}",Атырау
110779,"ул. Жарбосынова, д. 113","магазин ""Салтанжан""",47.1090509181632,51.8900152537316,"{'is_working': True, 'additional_info': []}",Атырау
110701,"ул. Карымсакова, д. 4А","магазин ""Айша-биби"", напротив ресторана ""Красный дракон""",47.0902014189008,51.9134358192115,"{'is_working': True, 'additional_info': []}",Атырау
110439,"ул. Кулманова, д. 135","магазин ""Жайык"", возле ТЦ Ардагер",47.1059,51.8889,"{'is_working': True, 'additional_info': []}",Атырау
40922,"ул. Курмангазы, д. 11","ТЦ Мерей, супермаркет ""Лидер"", возле главного входа",47.1001,51.88,"{'is_working': True, 'additional_info': []}",Атырау
42197,"ул. Курмангалиева, д. 52","по ул.Тайманова, за рестораном Оазис, магазин ""Нургуль""",47.1208,51.9001,"{'is_working': True, 'additional_info': []}",Атырау
41637,"ул. Махамбета,  д. 118 Е","супермаркет ""Атаба""",47.1007,51.9292,"{'is_working': True, 'additional_info': []}",Атырау
110618,"ул. Махамбета Утемисова, д. 116А","ТД Насиха, 1 этаж, возле супермаркета ""Идеал""",47.1017,51.9292,"{'is_working': True, 'additional_info': []}",Атырау
110596,"ул. Махамбета Утемисова, д. 116А","ТД Насиха, главный вход, 1 этаж, в холле, слева от лестницы ",47.1017,51.9297,"{'is_working': True, 'additional_info': []}",Атырау
110712,"ул. Махамбета Утемисова, д. 116А","ТД Насиха, 1 этаж, возле супермаркета ""Идеал""",47.1018330836915,51.9290537986226,"{'is_working': True, 'additional_info': ['Не печатает чек']}",Атырау
110657,"ул. Махамбета Утемисова, д. 116А","ТД Насиха, главный вход, 1 этаж, в холле, слева от лестницы",47.1017,51.9292,"{'is_working': True, 'additional_info': []}",Атырау
109989,"ул. М. Баймуханова, 3, кв. 52","напротив ТЦ ""Стамбул Үй Әлемі"", рядом рынок ""Мурагер"", ост. Привокзальная",47.1213,51.9208,"{'is_working': True, 'additional_info': []}",Атырау
110171,"ул. М. Баймуханова, 3, кв. 52","напротив ТЦ ""Стамбул Үй Әлемі"", рядом рынок ""Мурагер"", ост. Привокзальная",47.1213,51.9208,"{'is_working': True, 'additional_info': []}",Атырау
110717,"ул. Молдагуловой, д. 91","магазин ""Кит Край"", не доезжая до светофора",47.1232,51.9104,"{'is_working': True, 'additional_info': []}",Атырау
109960,"ул. М. Утемисова, 98","уг. ул. Абая, рядом с пассажем ""Насиха""",47.102699,51.929409,"{'is_working': True, 'additional_info': []}",Атырау
109876,"ул. М. Утемисова, д. 98","уг. ул. Абая, рядом с пассажем Насиха",47.102699,51.929409,"{'is_working': True, 'additional_info': []}",Атырау
109897,"ул. Сатпаева, 32, кв. 67","уг. ул. Тайманова, в р-не площади Исатая-Махамбета",47.104819,51.90397,"{'is_working': True, 'additional_info': []}",Атырау
110083,"ул. Сатпаева, 32, кв. 67","уг. ул. Тайманова, в р-не площади Исатая-Махамбета",47.104819,51.90397,"{'is_working': True, 'additional_info': []}",Атырау
40936,"ул. Сатпаева, д. 14","супермаркет ""Анвар"", за остановкой ""Абая""",47.1048,51.9097,"{'is_working': True, 'additional_info': []}",Атырау
110691,"ул. Сатыбалдина, д. 95","ТЦ Дина, вход со стороны строительного блока, возле банкомата Сбербанка",47.1248356088366,51.9538516650129,"{'is_working': True, 'additional_info': []}",Атырау
110707,"ул. С.Датова, д. 113","супермаркет ""Лидер"", слева от входа",47.1109,51.955,"{'is_working': True, 'additional_info': []}",Атырау
110709,"ул. С.Датова, д. 203","супермаркет ""Лидер"", справа от главного входа, банкоматная зона",47.1256955416209,51.9595495634393,"{'is_working': True, 'additional_info': []}",Атырау
110713,"ул. Сланова, д. 2","магазин ""Злия-2"", возле ЗАГСа",47.1239772079382,51.9259900864192,"{'is_working': True, 'additional_info': []}",Атырау
110743,"ул. Сырдарьинская, д. 20","магазин ""Маралым"", возле школы, р-н ""Химпоселка""",47.095779863393,51.9431576246552,"{'is_working': True, 'additional_info': []}",Атырау
109839,"ул. Сырыма Датова, 11","уг. ул. Махамбета, рядом ТД ""Арын"", напротив АЗС ""Гелиос""",47.097589,51.92853,"{'is_working': True, 'additional_info': []}",Атырау
109038,"ул. Сырыма Датова, 11","уг. ул. Махамбета, рядом ТД ""Арын"", напротив АЗС ""Гелиос""",47.097589,51.92853,"{'is_working': True, 'additional_info': []}",Атырау
110754,"ул. Сырыма Датова, д. 46","супермаркет ""Анвар"", справа от главного входа",47.100520736824,51.9360640141179,"{'is_working': True, 'additional_info': []}",Атырау
41960,"ул. Тайманова, д. 135","кольцевая трасса Атырау-Астрахань, здание WEST DALA, за АЗС ""Sinooil"", 1 этаж",47.1394,51.8928,"{'is_working': True, 'additional_info': []}",Атырау
110765,"ул. Утемисова, д. 112","магазин ""Аманат"", возле АО ""Атырау Жарык"", напротив магазина ""Идеал""",47.1095849893212,51.929206111539,"{'is_working': True, 'additional_info': []}",Атырау
110700,"мкр. Алмагуль, д. 1","супермаркет ""Лидер"", слева от входа, напротив поликлиники №7, возле Автомойки",47.1187,51.9401,"{'is_working': False, 'additional_info': []}",Атырау
110723,"пос. Рембаза, пер. Гарышкер, д. 27А","магазин ""Анар-Жанар"", в р-не Обл. больницы",47.0886,51.8678,"{'is_working': False, 'additional_info': []}",Атырау
