id,address1,address2,latitude,longitude,status,city
41617,"мкр. Арман, ул. Кунаева, д. 270","уг. ул. Аманжолова, АЗС Compass",43.3057,77.2042,"{'is_working': True, 'additional_info': []}",Талгар
113087,"пос. Гулдала, ул. Абая, д. 42Б",,43.3435,77.0417,"{'is_working': True, 'additional_info': []}",Талгар
113083,"пос. Гульдала, ул. Кичикова, д. 84 А",,43.3504866666667,77.056795,"{'is_working': True, 'additional_info': []}",Талгар
113053,"пос. Кызыл-Кайрат, ул. Малькеева, д. 109",,43.305,77.1946,"{'is_working': True, 'additional_info': []}",Талгар
41417,"пос. Туздыбастау, ул. Жылкыбая, д. 136","уг. ул. Алдабергенова, супермаркет ""№1""",43.3141,77.0567,"{'is_working': True, 'additional_info': []}",Талгар
42143,"пос. Туздыбастау, ул. Жылкыбая, д. 136/1","пересечение БАКа,ТД ""№1"", справа от главного входа, зона банкоматов",43.3142,77.0567,"{'is_working': True, 'additional_info': []}",Талгар
109805,"пр. Конаева, б/н","уг. ул. Малькеева, между рынком ""Алтын Сака"" и супермаркетом ""Альпина XXI""",43.3029852151,77.2330580264,"{'is_working': True, 'additional_info': []}",Талгар
109810,"пр. Кунаева, б/н","уг. ул. Малькеева, возле супермаркета Small",43.3036,77.2343,"{'is_working': True, 'additional_info': ['Не печатает чек']}",Талгар
109859,"пр. Кунаева, б/н","уг. ул. Малькеева, возле супермаркета Small",43.3036,77.2343,"{'is_working': True, 'additional_info': []}",Талгар
42236,"с. Азат, ул. Кунаева, д. 99А","магазин ""Малика"", справа от главного входа",43.3434,77.2616,"{'is_working': True, 'additional_info': []}",Талгар
42690,"с. Байсерке, ул. Сатпаева, д. 25 Б","супермаркет ""Радуга"", справа от главного входа",43.479,77.0388,"{'is_working': True, 'additional_info': []}",Талгар
42237,"с. Байтерек, ул. Алмерек Абыз, д. 54","вдоль Кульджинского тракта, Аптека, рядом с церковью, справа от главного входа",43.4048,77.2253,"{'is_working': True, 'additional_info': []}",Талгар
42122,"с. Белбулак, ул. Абдигулова, д. 30","маганзин ""Дастархан"", по главной улице, слева от входа",43.3101,77.1019,"{'is_working': True, 'additional_info': []}",Талгар
42525,"с. Бесагаш, ул. Карасай батыра, д. 1А","напротив минимаркета ""Азия"", справа от главного входа",43.2963,77.0321,"{'is_working': True, 'additional_info': []}",Талгар
41041,"с. Бесагаш, ул. Райымбека, д. 13",,43.3023,77.0622,"{'is_working': True, 'additional_info': []}",Талгар
113084,"с. Бесагаш, ул. Райымбека, д. 162","ТЦ Forte, справа от главного входа, напротив охраны, возле отдела мебели",43.2914822951015,77.0144639767211,"{'is_working': True, 'additional_info': []}",Талгар
116934,"с. Бесагаш, ул. Райымбека. д. 89",(магазин Азия),43.2967,77.0323,"{'is_working': True, 'additional_info': []}",Талгар
42192,"с. Бесагаш, ул. Райымбек Батыра, д. 2г",,43.3024,77.0628,"{'is_working': True, 'additional_info': []}",Талгар
42686,"с. Жетыген, ул. Валиханова, д. 138А","аптека ""САДЫХАН""",43.6815,77.1106,"{'is_working': True, 'additional_info': []}",Талгар
116928,"с. им. Туймебаева, ул. Аптечная, д. 1","уг. ул. Алматинская, ТД НУР АЛИ",43.4093,76.9142,"{'is_working': True, 'additional_info': []}",Талгар
41607,"с. им. Туймебаева, ул. Аптечная, д. 2Б","уг. ул. Алматинская, супермаркет ""Small""",43.4098,76.9142,"{'is_working': True, 'additional_info': ['Не печатает чек']}",Талгар
41726,"с. Кендала, сад. товарищество Энтузиаст-Талгар, уч. 70 А","не доезжая БАКА, магазин ""Айша""",43.384,77.2272,"{'is_working': True, 'additional_info': []}",Талгар
113059,"с. Кендала, ул. Жибек Жолы, д. 2",,43.3575175813662,77.2317431454639,"{'is_working': True, 'additional_info': []}",Талгар
40540,"с. Кызыл-Кайрат, ул. Малькеева, д. 33",,43.3046,77.1811,"{'is_working': True, 'additional_info': []}",Талгар
40675,"с. Кызылту, ул. Басибекова, д. 23А",,43.3839,77.0782,"{'is_working': True, 'additional_info': []}",Талгар
40858,"с. Панфилово, ул. Абая, д. 2А",,43.3806,77.1081,"{'is_working': True, 'additional_info': []}",Талгар
42597,"с. Покровка, ул. Алматинская, д. 190","магазин ""Жайляу"", слева от главного входа",43.3991,77.0083,"{'is_working': True, 'additional_info': []}",Талгар
113092,"с. Талдыбулак, ул. Ауэзова, д. 3/1",,43.3070557477359,77.1551064851278,"{'is_working': True, 'additional_info': []}",Талгар
113080,"ул. Абая, д. 334 А","Аптека, р-н новой больницы",43.3760366666667,77.447675,"{'is_working': True, 'additional_info': []}",Талгар
109609,"ул. Абылай хана, д. 117","ТД Айган City, справа от главного входа, напротив охраны, возле лестницы, напротив бутика женских аксессуаров",43.3066,77.2424,"{'is_working': True, 'additional_info': []}",Талгар
113066,"ул. Абылай хана, д. 117","ТД Айган City, справа от главного входа, напротив охраны, возле лестницы, напротив бутика женских аксессуаров",43.3065316368552,77.2423633333,"{'is_working': True, 'additional_info': []}",Талгар
113081,"ул. Бозторгай, д. 7а",,43.3159341743426,77.2326663498878,"{'is_working': True, 'additional_info': []}",Талгар
113095,"ул. Бокина, б/н",(магазин Майданбенк),43.3077980004652,77.2285558809012,"{'is_working': True, 'additional_info': []}",Талгар
109611,"ул. Бостанова, д. 29","уг. ул. Гагарина, ТЦ Кристалл",43.3508,76.8621,"{'is_working': True, 'additional_info': []}",Талгар
113074,"ул. Гагарина, д. 102",,43.3033354162599,77.2400639014225,"{'is_working': True, 'additional_info': []}",Талгар
113073,"ул. Кунаева, д. 177",,43.3039528110591,77.2193845655099,"{'is_working': True, 'additional_info': []}",Талгар
42079,"ул. Кунаева, д. 230","минимаркет ""Достык, напротив мечети, слева в тамбуре",43.3054,77.215,"{'is_working': True, 'additional_info': []}",Талгар
41418,"ул. Кунаева, д. 70","уг. ул. Гагарина, Аптека",43.3032,77.2394,"{'is_working': True, 'additional_info': []}",Талгар
113042,"ул. Кунаева, д. 87","ТД Санат, справа от главного входа, рядом с игровыми автоматами и бутиком сотовых аксессуаров",43.3031,77.234,"{'is_working': True, 'additional_info': []}",Талгар
113075,"ул. Кунаева, д. 87","ТД Санат, справа от главного входа, рядом с игровыми автоматами и бутиком сотовых аксессуаров",43.3029841600785,77.2339035251424,"{'is_working': True, 'additional_info': []}",Талгар
113043,"ул. Менделеева, д. 22",,43.3357,77.2473,"{'is_working': True, 'additional_info': []}",Талгар
42591,"ул. Рыскулова, д. 236","уг. ул. Пастера, минимаркет ""НУР"", слева от главного входа",43.3289,77.2511,"{'is_working': True, 'additional_info': []}",Талгар
109604,"ул. Рыскулова, д. 280А","магазин ""Спутник""",43.3235,77.2485,"{'is_working': True, 'additional_info': ['Не печатает чек']}",Талгар
41616,"ул. Садовая, д. 29","уг. ул. Амангельды, супермаркет ""Ароматный Мир""",43.3106,77.2474,"{'is_working': True, 'additional_info': []}",Талгар
113071,"ул. Фрунзе, д. 45","магазин ""Продукты"", внутри Центрального рынка, рядом с шлагбаумом, слева от главного входа",43.3535,77.4582,"{'is_working': True, 'additional_info': []}",Талгар
113041,"ул. Гагарина, д. 102",,43.3032,77.24,"{'is_working': False, 'additional_info': []}",Талгар
113097,"с. им. Туймебаева, ул. Аптечная, д. 1","уг. ул. Алматинская, ТД Нур-Али",43.4093,76.9141,"{'is_working': False, 'additional_info': []}",Талгар
