id,address1,address2,latitude,longitude,status,city
112492,"с. Абай, ул. Артыкова, б/н",(Жаным апа),41.3401,68.9526,"{'is_working': True, 'additional_info': []}",Сарыагаш
40987,"с. Абай, ул. Артыкова, б/н","при въезде в село, слева по ул. Артыкова, напротив аптеки  ""Еврофарм""",41.3403,68.9526,"{'is_working': True, 'additional_info': []}",Сарыагаш
40988,"с. Абай, ул. Артыкова, б/н","при въезде в село, слева по ул. Артыкова, напротив аптеки  ""Еврофарм""",41.3402,68.9525,"{'is_working': True, 'additional_info': []}",Сарыагаш
40986,"с. Абай, ул. Артыкова, б/н","при въезде в село, слева по ул. Артыкова, напротив аптеки  ""Еврофарм""",41.3401,68.9525,"{'is_working': True, 'additional_info': []}",Сарыагаш
112491,"с. Абай, ул. Артыкова, б/н","уг. ул. Кунаева магазин ""Жанам апа""",41.3401,68.9526,"{'is_working': True, 'additional_info': []}",Сарыагаш
112537,"с. Абай, ул. Артыкова, д. 11","при въезде в село, напротив ул. А.Мамытбаева",41.3514,68.9668,"{'is_working': True, 'additional_info': []}",Сарыагаш
112543,"с. Акниет, ул. Пупашенко, д. 2","уг. ул. Абая, магазин ""Ак ниет""",41.4508,69.1583,"{'is_working': True, 'additional_info': []}",Сарыагаш
112553,"с. Асык Ата, ул. Алимбетова, б/н",(магазин Мусабек ата),40.8953304087471,68.3660091271766,"{'is_working': True, 'additional_info': []}",Сарыагаш
109541,"с. Асык Ата, ул. Алимбетова, б/н","уг. ул. Аль-Фараби, (Мусабек ата)",40.8972821804723,68.3709525026448,"{'is_working': True, 'additional_info': []}",Сарыагаш
112379,"с. Асык Ата, ул. Алимбетова, д. 39","напротив кафе ""Нур-ән""",40.8917569336444,68.3619441587321,"{'is_working': True, 'additional_info': []}",Сарыагаш
109574,"с. Асыката, ул. Аль-Фараби, б/н","автовокзал ""Асык-Ата""",40.8957,68.3665,"{'is_working': True, 'additional_info': []}",Сарыагаш
112479,"с. Атакент ул. Ташкентская, б/н","напротив ресторана ""Айгерім""",40.8417,68.5043,"{'is_working': True, 'additional_info': []}",Сарыагаш
40864,"с. Атакент, ул. Ташкентская, б/н",уг. ул. Торекулова,40.8419,68.4968,"{'is_working': True, 'additional_info': []}",Сарыагаш
112476,"с. Атакент, ул. Ташкентская, б/н",уг. ул. Торекулова,40.8419729572641,68.4989114576721,"{'is_working': True, 'additional_info': []}",Сарыагаш
109579,"с. Атакент, ул. Ташкентская, б/н","уг. ул. Торекулова, (ТЦ Айдос)",40.8423374963975,68.5147608993327,"{'is_working': True, 'additional_info': []}",Сарыагаш
40869,"с. Атакент, ул. Ташкентская, б/н","напротив ресторана ""Айгерим""",40.8534,68.4935,"{'is_working': True, 'additional_info': []}",Сарыагаш
41346,"с. Жемисти, ул. Т.Толендиулы, д. 147",при везде в село,41.5339,69.3513,"{'is_working': True, 'additional_info': []}",Сарыагаш
40802,"с. Жетысай, ул. Амангелды, д. 12А",возле площади,40.7712,68.3343,"{'is_working': True, 'additional_info': []}",Сарыагаш
112478,"с. Жибек Жолы, ул. Ахбердиева, б/н","рынок ""Жеты-Асыл"", слева от входа",41.4848,69.3639,"{'is_working': True, 'additional_info': []}",Сарыагаш
42187,"с. Жибек-жолы, ул. Ахбердиева, д. 20","ТЦ Керемет, 1 этаж, слева от входа, возле таможенного поста ""Жибек Жолы""",41.4745,69.3596,"{'is_working': True, 'additional_info': []}",Сарыагаш
116094,"с. Казагурт, ул. Кунаева, д. 87",возле Акимата,41.7591,69.3878,"{'is_working': True, 'additional_info': []}",Сарыагаш
40592,"с. Казыгурт, ул. Конаева, д. 87","ТЦ Асем, напротив Центрального парка, рядом с Акиматом, при входе справа",41.7578,69.3886,"{'is_working': True, 'additional_info': []}",Сарыагаш
112556,"с. Казыгурт, ул. Кунаева, д. 87","ТЦ Асем, напротив Центрального парка, рядом с Акиматом, при входе справа",41.7578,69.3886,"{'is_working': True, 'additional_info': []}",Сарыагаш
115879,"с. Казыгурт, ул. Кунаева, д. 87",Напротив сел. Акимат,41.7576,69.3881,"{'is_working': True, 'additional_info': []}",Сарыагаш
112464,"с. Куркелес, ул. Акбура-Ата, д. 80","(магазин Береке), напротив школы им. Айбегенова",41.4698116668595,69.1270287566119,"{'is_working': True, 'additional_info': []}",Сарыагаш
112517,"с. Ынтымак, ул. Ынтымак, д. 24б",(супермеркет Асыл Мура),40.7836993318174,68.3033198316698,"{'is_working': True, 'additional_info': []}",Сарыагаш
112341,"ул. 65 лет Победы, д. 1","(магазин Алтын-Жулдыз), напротив АЗС",41.473729553049,69.1842342658741,"{'is_working': True, 'additional_info': []}",Сарыагаш
41827,"ул. Амангельды, д. 12А","напротив ресторана ""Жетіген""",40.7682,68.3322,"{'is_working': True, 'additional_info': []}",Сарыагаш
41826,"ул. Амангельды, д. 12А","напротив ресторана ""Жетіген""",40.7682,68.3322,"{'is_working': True, 'additional_info': []}",Сарыагаш
41825,"ул. Ахбердиева, б/н","магазин ""Асель""",41.4895,69.361,"{'is_working': True, 'additional_info': ['Не печатает чек']}",Сарыагаш
112450,"ул. Байбек Ермекова, д. 3","ТЦ Алып, магазин Сапа",41.4521,69.1681,"{'is_working': True, 'additional_info': []}",Сарыагаш
112448,"ул. Байбек Ермекова, д. 3",(ТЦ Алып),41.4520203611992,69.1691881190478,"{'is_working': True, 'additional_info': []}",Сарыагаш
112353,"ул. Дуйсебайулы, д. 11","ТЦ Эврика, напротив кафе ""Лашын""",41.461,69.1622,"{'is_working': True, 'additional_info': []}",Сарыагаш
112336,"ул. Ермекова, д. 3","уг. ул. Исмаилова, ТЦ Алып, напротив стоматологического центра ""Бекен""",41.4520284321075,69.1690701018518,"{'is_working': True, 'additional_info': []}",Сарыагаш
112564,"ул. Исмаилова, б/н",(ТД Нарлен),41.4525,69.1708,"{'is_working': True, 'additional_info': []}",Сарыагаш
112340,"ул. Исмайлова, б/н","(магазин Аружан), напротив таможенного поста ""Капланбек""",41.4590673618482,69.2059314629617,"{'is_working': True, 'additional_info': []}",Сарыагаш
112335,"ул. Исмайлова, д. 221а","(магазин Табыс), напротив цветочного магазина ""Сакит""",41.4558787627166,69.1887120846557,"{'is_working': True, 'additional_info': []}",Сарыагаш
112339,"ул. Исмайлова, д. 95","уг. ул. Толе би, (магазин Коктем)",41.4524592826105,69.1756951018523,"{'is_working': True, 'additional_info': []}",Сарыагаш
109983,"ул. Майлы кожа, б/н","отделение ""Kaspi Bank"", остановка ""ДОСААФ"", рядом с букмекерской конторой ""Profit"" и магазином ""Нур""",41.462,69.1562,"{'is_working': True, 'additional_info': []}",Сарыагаш
112369,"ул. Майлы кожа, б/н","на территории рынка ""Даулет""",41.4534,69.1651,"{'is_working': True, 'additional_info': []}",Сарыагаш
112438,"ул. Майлы кожа, д. 14А/1",напротив Казахтелекома,41.4610399092818,69.1596804126993,"{'is_working': True, 'additional_info': []}",Сарыагаш
112511,"ул. Майлы кожа, д. 15 А",(магазин Ак-ерке),41.462618672464,69.1549240734575,"{'is_working': True, 'additional_info': ['Не печатает чек']}",Сарыагаш
40726,"ул. Майлы Кожа, д. 58Б",напротив Автовокзала,41.4625,69.1554,"{'is_working': True, 'additional_info': []}",Сарыагаш
112356,"ул. Тасмуратова, б/н","магазиг ""Нурбол"", справа от входа, на территории рынка ""Жибек Жолы""",41.4575,69.1487,"{'is_working': True, 'additional_info': []}",Сарыагаш
40593,"ул. Тасмуратова, б/н","рынок ""Жибек жолы""",41.4579,69.1471,"{'is_working': True, 'additional_info': []}",Сарыагаш
112523,"с. Дербисек, ул. Шонгара, д. 25А",(супермаркет Аяла),41.5522368671292,69.3524152839436,"{'is_working': False, 'additional_info': []}",Сарыагаш
42425,"ул. Тасмуратова, б/н","рынок ""Жибек-Жолы"", магазин ""Нурбол"", при входе справа",41.4581,69.148,"{'is_working': False, 'additional_info': []}",Сарыагаш
42190,"с. Капланбек, трасса Сарыагаш-Шымкент, д. 19Б","супермаркет ""Кабланбек"", рядом с агромагазином ""Кабланбек""",41.4898,69.264,"{'is_working': False, 'additional_info': []}",Сарыагаш
112449,"ул. Байбек Ермекова, д. 3",(ТЦ Алып),41.4520607195341,69.1692203055565,"{'is_working': False, 'additional_info': []}",Сарыагаш
112547,"ул. Исмаилова, б/н","ТЦ Жайна, Аптека, справа от входа, напротив ТЦ Алып",41.4524,69.1693,"{'is_working': False, 'additional_info': []}",Сарыагаш
109528,"ул. Мира, б/н","(Керемет), напротив многопрофильного колледжа №12",41.4651677194665,69.1718858306884,"{'is_working': False, 'additional_info': []}",Сарыагаш
