ServiceList,Id,Details,Name,Address,Longitude,Latitude,CityId,HasTickets,B2B,MetroId
"[1, 2, 4, 8, 16, 32, 64, 128, 256, 2048, 8192, 16384, 131072, 262144, 33554432]",D111,"['', '', 'ПН-ВС 10:00-19:00', '']",Дальнегорск,"Дальнегорск, пр-т 50 лет Октября, д.52",135.558965,44.547915,628,True,,
"[1, 4, 8, 2048, 67108864]",U489_fr,"['', 'ПН-ВС 10:00-20:00', '', '']",Дальнегорск,"Дальнегорск, пр-т 50 лет Октября, д.17",135.554941,44.54719,628,,,
"[1, 2, 4, 8, 16, 32, 64, 128, 256, 2048, 8192, 16384, 131072, 262144, 33554432]",D105,"['', '', '', 'ПН-ВС 09:00-20:00']",Якутск,"Якутск, ул. Дзержинского, д.70 В",129.743623,62.060408,625,True,,
"[1, 2, 4, 8, 16, 32, 64, 128, 256, 512, 2048, 8192, 16384, 131072, 262144, 524288, 33554432]",D108,"['', 'ПН-ПТ 09:00-20:00, СБ-ВС 10:00-19:00', '', '']",Якутск,"Якутск, ул. Пояркова, д.15/1",129.734226,62.035583,625,True,True,
"[1, 2, 4, 8, 16, 32, 64, 128, 256, 512, 2048, 8192, 16384, 131072, 262144, 524288, 33554432]",D134,"['', 'ПН-ВС 09:00-20:00', '', '']",Якутск,"Якутск, ул. Ойунского, д.3",129.71599,62.027246,625,True,True,
"[1, 2, 4, 8, 16, 32, 64, 128, 256, 2048, 8192, 16384, 131072, 262144, 33554432]",D168,"['', 'ПН-ВС 09:00-20:00', '', '']",Якутск,"Якутск, пр-т Ленина, д.14",129.738098,62.030727,625,True,,
"[1, 2, 4, 8, 16, 32, 64, 128, 256, 2048, 8192, 16384, 262144, 33554432]",F097,"['', 'ПН-ВС 10:00-19:45', '', '']",Якутск,"Якутск, ул. Кальвица, д.14/5",129.746255,62.049721,625,True,,
"[1, 2, 4, 8, 16, 32, 64, 128, 256, 2048, 8192, 16384, 262144, 33554432]",F577,"['', '', 'ПН-ВС 09:00-20:00', '']",Якутск,"Якутск, ул. Лермонтова, д.62 К",129.721012,62.036916,625,True,,
"[1, 2, 4, 8, 16, 32, 64, 128, 256, 2048, 8192, 16384, 262144, 33554432]",F998,"['', '', 'ПН-ВС 09:00-20:00', '']",Якутск,"Якутск, пр-т Ленина, д.9",129.743039,62.032204,625,True,,
"[1, 2, 4, 8, 16, 32, 64, 128, 256, 2048, 8192, 16384, 262144, 33554432]",G347,"['', 'ПН-ВС 10:00-18:00', '', '']",Якутск,"Якутск, ул. Орджоникидзе, д.38",129.728971,62.029077,625,True,,
"[1, 2, 4, 8, 16, 32, 64, 128, 256, 2048, 8192, 16384, 262144, 33554432]",G713,"['', 'ПН-ВС 09:00-20:00', '', '']",Якутск,"Якутск, ул. Севастопольская, д.1/1А",129.732457,62.077391,625,True,,
"[1, 2, 4, 8, 16, 32, 64, 128, 256, 2048, 8192, 16384, 33554432]",G900,"['', 'ПН-ВС 09:00-20:00', '', '']",Якутск,"Якутск, ул. Октябрьская, д.24/1",129.716251,62.02855,625,,,
"[1, 4, 8, 67108864]",P156_fr,"['', 'ПН-ВС 9:00-20:00', '', '']",Якутск,"Якутск, ул. Лермонтова, д.62/2",129.741583,62.043347,625,,,
"[1, 2, 4, 8, 16, 32, 128, 256, 1024, 2048, 4096, 8192, 16384, 131072, 262144]",D013,"['', '', 'ПН-ВС 09:00-21:00', '']",Уссурийск,"Уссурийск, ул. Некрасова, д.86",131.950981,43.802042,628,True,,
"[1, 2, 4, 8, 16, 32, 128, 256, 2048, 8192, 16384, 131072, 262144]",D027,"['', 'ПН-ВС 09:00-20:00', '', '']",Уссурийск,"Уссурийск, ул. Чичерина, д.84, корп.А",131.962363,43.791859,628,True,,
"[1, 2, 4, 8, 16, 32, 64, 128, 256, 512, 2048, 8192, 16384, 65536, 131072, 262144, 524288, 33554432]",D094,"['', 'ПН-ПТ 09:00-20:00, СБ-ВС 10:00-20:00', '', '']",Уссурийск,"Уссурийск, ул. Чичерина, д.83",131.95302,43.791358,628,True,True,
"[1, 2, 4, 8, 16, 32, 64, 128, 256, 2048, 8192, 16384, 131072, 262144, 33554432]",D115,"['', 'ПН-ВС 09:00-20:00', '', '']",Уссурийск,"Уссурийск, ул. Некрасова, д.79",131.951178,43.798216,628,True,,
"[1, 2, 4, 8, 16, 32, 128, 256, 1024, 2048, 4096, 8192, 16384]",H529,"['', 'ВС-ЧТ 10:00-21:00, ПТ-СБ 10:00-22:00', '', '']",Уссурийск,"Уссурийск, ул. Дзержинского, д.93б",131.935934,43.810578,628,,,
"[1, 2, 4, 8, 16, 32, 128, 256, 2048, 8192, 16384]",H669,"['', 'ПН-ВС 09:00-20:00', '', '']",Уссурийск,"Уссурийск, ул. Чичерина, д.62",131.958257,43.791403,628,,,
"[1, 2, 4, 8, 16, 32, 64, 128, 256, 1024, 2048, 4096, 8192, 16384, 262144, 33554432]",D961,"['', '', 'ПН-ВС 10:00-21:00', '']",Норильск,"Норильск, ул. Нансена, д.70",88.171406,69.359069,605,True,,
"[1, 2, 4, 8, 16, 32, 64, 128, 256, 2048, 8192, 16384, 262144, 33554432]",E749,"['', '', 'ПН-ВС 11:00-20:00', '']",Норильск,"Норильск, ул. Строителей, д.12",88.398392,69.484083,605,True,,
"[1, 2, 4, 8, 16, 32, 64, 128, 256, 2048, 8192, 16384, 262144, 33554432]",F189,"['', 'ПН-ВС 11:00-20:00', '', '']",Норильск,"Норильск, ул. Школьная, д.16",87.755207,69.350498,605,True,,
"[1, 2, 4, 8, 16, 32, 64, 128, 256, 1024, 2048, 4096, 8192, 16384, 33554432]",H561,"['', 'ПН-ВС 10:00-21:00', '', '']",Норильск,"Норильск, пр-т Ленинский, д.40а",88.194178,69.353332,605,,,
"[1, 2, 4, 8, 16, 32, 64, 128, 256, 1024, 2048, 4096, 8192, 16384, 33554432]",H578,"['', '', 'ПН-ВС 10:00-22:00', '']",Норильск,"Норильск, пл. Металлургов, д.10",88.183003,69.358924,605,,,
"[1, 4, 8, 67108864]",Q154_fr,"['', '', 'ПН-ПТ 11:00-19:00, СБ 11:00-19:00, ВС 12:00-18:00', '']",Норильск,"Норильск, пр-т Ленинский, д.3",88.208452,69.342364,605,,,
"[1, 2, 4, 8, 16, 32, 64, 128, 256, 512, 2048, 8192, 16384, 131072, 262144, 524288, 33554432]",S328,"['', 'ПН-ВС 10:00-20:00', '', '']",Норильск,"Норильск, ул. Мира, д.6",88.204206,69.35813,605,True,True,
"[1, 2, 4, 8, 16, 32, 128, 256, 1024, 2048, 4096, 8192, 16384, 131072, 262144]",D054,"['', '', 'ПН-ВС 09:00-21:00', '']",Комсомольск-на-Амуре,"Комсомольск-на-Амуре, Ленина пр-т, д.7",137.017829,50.55532,613,True,,
"[1, 2, 4, 8, 16, 32, 64, 128, 256, 2048, 8192, 16384, 131072, 262144, 33554432]",D110,"['', '', 'ПН-ВС 09:00-20:00', '']",Комсомольск-на-Амуре,"Комсомольск-на-Амуре, пр-т Мира, д.28",137.020057,50.546134,613,True,,
"[1, 2, 4, 8, 16, 32, 128, 256, 2048, 8192, 16384, 65536, 131072, 262144]",D113,"['', 'ПН-СБ 09:30-19:45, ВС 10:30-19:45', '', '']",Комсомольск-на-Амуре,"Комсомольск-на-Амуре, ул. Победы, д.14",137.059889,50.582747,613,True,,
"[1, 2, 4, 8, 16, 32, 64, 128, 256, 2048, 8192, 16384, 131072, 262144, 33554432]",D145,"['', 'ПН-ВС 09:00-20:00', '', '']",Комсомольск-на-Амуре,"Комсомольск-на-Амуре, ул. Ленина, д.26",137.01129,50.552241,613,True,,
"[1, 2, 4, 8, 16, 32, 128, 256, 1024, 2048, 4096, 8192, 16384, 131072, 262144]",D152,"['', '', 'ПН-ВС 09:00-21:00', '']",Комсомольск-на-Амуре,"Комсомольск-на-Амуре, ул. Вокзальная, д.43",136.990718,50.547491,613,True,,
"[1, 2, 4, 8, 16, 32, 64, 128, 256, 2048, 8192, 16384, 262144, 33554432]",E366,"['', 'ПН-ВС 09:00-19:00', '', '']",Комсомольск-на-Амуре,"Комсомольск-на-Амуре, ул. Молодогвардейская, д.24",137.010948,50.541526,613,True,,
"[1, 2, 4, 8, 16, 32, 128, 256, 2048, 8192, 16384, 262144]",E378,"['', 'ПН-ВС 09:00-20:00', '', '']",Комсомольск-на-Амуре,"Комсомольск-на-Амуре, ул. Гамарника, д.17",136.976327,50.545533,613,True,,
"[1, 2, 4, 8, 16, 32, 128, 256, 512, 2048, 8192, 16384, 262144, 524288]",F288,"['', '', 'ПН-ВС 09:00-20:00', '']",Комсомольск-на-Амуре,"Комсомольск-на-Амуре, ул. Васянина, д.12",137.000294,50.542934,613,True,True,
"[1, 2, 4, 8, 16, 32, 128, 256, 2048, 8192, 16384, 262144]",G649,"['', 'ПН-ВС 09:00-20:00', '', '']",Комсомольск-на-Амуре,"Комсомольск-на-Амуре, пр-т Победы, д.57",137.058191,50.588375,613,True,,
"[1, 2, 4, 8, 16, 32, 64, 128, 256, 2048, 8192, 16384, 33554432]",H641,"['', 'ПН-ВС 09:00-20:00', '', '']",Комсомольск-на-Амуре,"Комсомольск-на-Амуре, ул. Проспект Победы, д.22/7",137.060616,50.589501,613,,,
"[1, 4, 8, 1024, 2048, 67108864]",U674_fr,"['', 'ПН-СБ 09:00-21:00, ВС 10:00-20:00', '', '']",Комсомольск-на-Амуре,"Комсомольск-на-Амуре, ул. Дикопольцева, д.34",136.966679,50.54776,613,,,
"[1, 4, 8, 2048, 67108864]",U963_fr,"['', '', 'ПН-Пт 10:00-19:00, СБ 10:00-18:00, ВС 11:00-18:00', '']",Комсомольск-на-Амуре,"Комсомольск-на-Амуре, ул. Аллея Труда, д.56",137.004489,50.532664,613,,,
"[1, 4, 8, 2048, 67108864]",U964_fr,"['', '', 'ПН-ВС 10:00-20:00', '']",Комсомольск-на-Амуре,"Комсомольск-на-Амуре, ул. Димитрова, д.14а",137.003322,50.553969,613,,,
"[1, 4, 8, 1024, 2048, 67108864]",BE66_fr,"['', '', 'ПН-ВС 10:00-21:00', '']",Краснодар,"Краснодар, ул. Петра Метальникова, д.3/1А",39.004185,45.093518,596,,,
"[1, 4, 8, 2048, 67108864]",DE79_fr,"['', '', 'ПН-ВС 09:00-20:00', '']",Краснодар,"Краснодар, ул. Каляева, д.21",38.935832,45.042133,596,,,
"[1, 2, 4, 8, 16, 32, 128, 256, 1024, 2048, 4096, 8192, 16384, 65536, 262144]",E132,"['', '', 'ПН-ВС 09:00-21:00', '']",Краснодар,"Краснодар, ул. Красная, д.176/1",38.978673,45.044928,596,True,,
"[1, 2, 4, 8, 16, 32, 128, 256, 2048, 8192, 16384, 262144]",E150,"['', '', 'ПН-ВС 08:00-20:00', '']",Краснодар,"Краснодар, ул. Сормовская, д.7/6",39.065172,45.02438,596,True,,
"[1, 2, 4, 8, 16, 32, 128, 256, 2048, 8192, 16384, 262144]",E449,"['', '', 'ПН-ВС 08:00-20:00', '']",Краснодар,"Краснодар, ул. Красноармейская/Гоголя, д.60/6",38.969959,45.026928,596,True,,
"[1, 2, 4, 8, 16, 32, 128, 256, 1024, 2048, 4096, 8192, 16384, 262144]",E969,"['', 'ПН-ВС 09:00-21:00', '', '']",Краснодар,"Краснодар, пл. Привокзальная, д.1 А",38.986704,45.019105,596,True,,
"[1, 2, 4, 8, 16, 32, 64, 128, 256, 2048, 8192, 16384, 262144, 33554432]",E996,"['', 'ПН-ВС 08:00-20:00', '', '']",Краснодар,"Краснодар, Нефтяников ш., д.11",38.981314,45.058351,596,True,,
"[1, 2, 4, 8, 16, 32, 128, 256, 1024, 2048, 4096, 8192, 16384, 262144]",F017,"['', '', 'ПН-ВС 09:00-21:00', '']",Краснодар,"Краснодар, ул. им. Дзержинского, д.42",38.97342,45.068118,596,True,,
"[1, 2, 4, 8, 16, 32, 128, 256, 1024, 2048, 4096, 8192, 16384, 262144]",F064,"['', '', 'ПН-ВС 09:00-21:00', '']",Краснодар,"Краснодар, ул. Кубанская Набережная, д.25",38.959431,45.022099,596,True,,
"[1, 2, 4, 8, 16, 32, 128, 256, 1024, 2048, 4096, 8192, 16384, 262144]",F174,"['', 'ПН-ВС 09:00-21:00', '', '']",Краснодар,"Краснодар, ул. Красная, д.162",38.976732,45.040451,596,True,,
"[1, 2, 4, 8, 16, 32, 128, 256, 2048, 8192, 16384, 262144]",F292,"['', 'ПН-ВС 08:00-20:00', '', '']",Краснодар,"Краснодар, ул. им. Атарбекова, д.5",38.947205,45.059911,596,True,,
"[1, 2, 4, 8, 16, 32, 128, 256, 1024, 2048, 4096, 8192, 16384, 262144]",F338,"['', 'ПН-ВС 10:00-22:00', '', '']",Краснодар,"Краснодар, ул. Уральская, д.98/11",39.046181,45.02982,596,True,,
"[1, 2, 4, 8, 16, 32, 128, 256, 1024, 2048, 4096, 8192, 16384, 262144]",F573,"['', '', 'ПН-ВС 10:00-22:00', '']",Краснодар,"Краснодар, ул. им. Тюляева, д.2",39.098706,45.033439,596,True,,
"[1, 2, 4, 8, 16, 32, 64, 128, 256, 1024, 2048, 4096, 8192, 16384, 262144, 33554432]",F680,"['', '', 'ПН-ВС 09:00-21:00', '']",Краснодар,"Краснодар, ул. Ставропольская, д.178/1",39.010509,45.020609,596,True,,
"[1, 2, 4, 8, 16, 32, 128, 256, 1024, 2048, 4096, 8192, 16384, 262144]",F705,"['', 'ПН-ВС 09:00-21:00', '', '']",Краснодар,"Краснодар, ул. Уральская, д.79",39.05008,45.034005,596,True,,
"[1, 2, 4, 8, 16, 32, 128, 256, 1024, 2048, 4096, 8192, 16384, 262144]",G222,"['', 'ПН-ВС 09:00-21:00', '', '']",Краснодар,"Краснодар, ул. Западный обход, д.34",38.902837,45.085793,596,True,,
"[1, 2, 4, 8, 16, 32, 128, 256, 2048, 8192, 16384, 262144]",G572,"['', '', 'ПН-ВС 08:00-20:00', '']",Краснодар,"Краснодар, ул. Зиповская ул/Московская, д.17/54",39.003152,45.062598,596,True,,
"[1, 2, 4, 8, 16, 32, 128, 256, 1024, 2048, 4096, 8192, 16384, 262144]",G699,"['', 'ПН-ВС 09:00-21:00', '', '']",Краснодар,"Краснодар, пр-т Чекистов, д.1/3",38.905613,45.027629,596,True,,
"[1, 2, 4, 8, 16, 32, 128, 256, 1024, 2048, 4096, 8192, 16384, 262144]",G739,"['', 'ПН-ВС 09:00-21:00', '', '']",Краснодар,"Краснодар, ул. Западный Обход, д.29",38.893755,45.080568,596,True,,
"[1, 2, 4, 8, 16, 32, 64, 128, 256, 1024, 2048, 4096, 8192, 16384, 33554432]",G798,"['', '', 'ПН-ВС 09:00-21:00', '']",Краснодар,"Краснодар, ул. Черкасская, д.57/2",39.026176,45.066004,596,,,
"[1, 2, 4, 8, 16, 32, 128, 256, 2048, 8192, 16384]",G821,"['', 'ПН-ВС 09:00-20:00', '', '']",Краснодар,"Краснодар, ул. Северная, д.353",38.989093,45.038362,596,,,
"[1, 4, 8, 2048, 67108864]",HE93_fr,"['', 'ПН-ВС 9:00-20:00', '', '']",Краснодар,"Краснодар, ул. Комарова, д.21/1",39.029203,45.116197,596,,,
"[1, 4, 8, 2048, 67108864]",T476_fr,"['', '', 'ПН-ВС 09:00-20:00', '']",Краснодар,"Краснодар, ул. Суздальская, д.1",39.002011,45.083234,596,,,
"[1, 2, 4, 8, 16, 32, 128, 256, 1024, 2048, 4096, 8192, 16384, 131072, 262144]",U008,"['', '', 'ПН-ВС 09:00-21:00', '']",Краснодар,"Краснодар, пр-т Чекистов, д.17",38.912197,45.031158,596,True,,
"[1, 2, 4, 8, 16, 32, 64, 128, 256, 2048, 8192, 16384, 131072, 262144, 33554432]",U010,"['', '', 'ПН-ВС 08:00-20:00', '']",Краснодар,"Краснодар, ул. Вишняковой, д.118/1",38.999864,45.020277,596,True,,
"[1, 2, 4, 8, 16, 32, 128, 256, 2048, 8192, 16384, 131072, 262144]",U013,"['', 'ПН-ВС 08:00-20:00', '', '']",Краснодар,"Краснодар, ул. Игнатова, д.16",39.071909,45.007419,596,True,,
"[1, 2, 4, 8, 16, 32, 128, 256, 1024, 2048, 4096, 8192, 16384, 131072, 262144]",U016,"['', 'ПН-ВС 09:00-21:00', '', '']",Краснодар,"Краснодар, ул. 40 лет Победы, д.71 А",39.021603,45.056053,596,True,,
"[1, 2, 4, 8, 16, 32, 128, 256, 2048, 8192, 16384, 131072, 262144]",U018,"['', '', 'ПН-ВС 08:00-20:00', '']",Краснодар,"Краснодар, ул. угол Ставропольская/Димитрова",39.028688,45.020015,596,True,,
"[1, 2, 4, 8, 16, 32, 128, 256, 2048, 8192, 16384, 65536, 131072, 262144]",U041,"['', 'ПН-ВС 08:00-20:00', '', '']",Краснодар,"Краснодар, ул. Атарбекова, д.38",38.953062,45.059033,596,True,,
"[1, 2, 4, 8, 16, 32, 128, 256, 2048, 8192, 16384, 131072, 262144]",U050,"['', '', 'ПН-ВС 08:00-20:00', '']",Краснодар,"Краснодар, ул. им Калинина, д.337",38.971423,45.037929,596,True,,
"[1, 2, 4, 8, 16, 32, 128, 256, 1024, 2048, 4096, 8192, 16384, 65536, 131072, 262144]",U053,"['', 'ПН-ВС 09:00-21:00', '', '']",Краснодар,"Краснодар, ул. Тюляева, д.39/1",39.096083,45.038916,596,True,,
"[1, 2, 4, 8, 16, 32, 128, 256, 2048, 8192, 16384, 131072, 262144]",U061,"['', 'ПН-ВС 08:00-20:00', '', '']",Краснодар,"Краснодар, ул. Ставропольская, д.75/2",39.003915,45.020494,596,True,,
"[1, 2, 4, 8, 16, 32, 128, 256, 1024, 2048, 4096, 8192, 16384, 65536, 131072, 262144]",U077,"['', '', 'ПН-ВС 10:00-21:00', '']",Краснодар,"Краснодар, ул. Стасова-Сормовская, д.178/180/1 лит Ш, ТК",39.048738,45.025832,596,True,,
"[1, 2, 4, 8, 16, 32, 128, 256, 2048, 8192, 16384, 131072, 262144]",U093,"['', '', 'ПН-ВС 08:00-20:00', '']",Краснодар,"Краснодар, ул. Карасунская, д.86, литер ""О""",38.974307,45.027731,596,True,,
"[1, 2, 4, 8, 16, 32, 64, 128, 256, 2048, 8192, 16384, 131072, 262144, 33554432]",U144,"['', 'ПН-ВС 08:00-20:00', '', '']",Краснодар,"Краснодар, ул. Атарбекова, д.28/1",38.951669,45.059154,596,True,,
"[1, 4, 8, 2048, 67108864]",U166_fr,"['', '', '', 'ПН-ВС 8:00-20:00']",Краснодар,"Краснодар, ул. Красных Партизан/Сочинская, д.161 А",38.924522,45.061013,596,,,
"[1, 2, 4, 8, 16, 32, 128, 256, 1024, 2048, 4096, 8192, 16384, 65536, 131072, 262144]",U193,"['', 'ПН-ВС 10:00-21:00', '', '']",Краснодар,"Краснодар, ул. Стасова/Сормовская, д.178-180/1 лит Ш",39.047645,45.025196,596,True,,
"[1, 2, 4, 8, 16, 32, 128, 256, 512, 1024, 2048, 4096, 8192, 16384, 65536, 131072, 262144, 524288]",U198,"['', 'ПН-ВС 10:00-22:00', '', '']",Краснодар,"Краснодар, ул. Дзержинского, д.100 ТРК ""Красная Площадь""",38.983847,45.102209,596,True,True,
"[1, 4, 8, 1024, 2048, 67108864]",U205_fr,"['', '', 'ПН-ВС 10:00-22:00', '']",Краснодар,"Краснодар, ул. Артюшкова, д.2",39.014884,45.064317,596,,,
"[1, 2, 4, 8, 16, 32, 128, 256, 512, 2048, 8192, 16384, 65536, 131072, 262144, 524288]",U228,"['', '', 'ПН-ВС 08:00-20:00', '']",Краснодар,"Краснодар, ул. Буденного, д.142",38.969591,45.036311,596,True,True,
"[1, 2, 4, 8, 16, 32, 128, 256, 512, 2048, 8192, 16384, 65536, 131072, 262144, 524288]",U229,"['', '', 'ПН-ВС 08:00-20:00', '']",Краснодар,"Краснодар, ул. Гимназическая, д.61",38.969869,45.025622,596,True,True,
"[1, 2, 4, 8, 16, 32, 64, 128, 256, 2048, 8192, 16384, 131072, 262144, 33554432]",U230,"['', 'ПН-ВС 08:00-20:00', '', '']",Краснодар,"Краснодар, ул. Красная, д.165/1",38.979463,45.053315,596,True,,
"[1, 2, 4, 8, 16, 32, 128, 256, 1024, 2048, 4096, 8192, 16384, 65536, 131072, 262144]",U280,"['', 'ПН-ВС 10:00-22:00', '', '']",Краснодар,"Краснодар, ул. Володи Головатого, д.313",38.974424,45.039515,596,True,,
"[1, 2, 4, 8, 16, 32, 128, 256, 1024, 2048, 4096, 8192, 16384, 65536, 131072, 262144]",U291,"['', 'ПН-ВС 10:00-22:00', '', '']",Краснодар,"Краснодар, ул. Уральская, д.79/1",39.052586,45.03449,596,True,,
"[1, 2, 4, 8, 16, 32, 128, 256, 1024, 2048, 4096, 8192, 16384, 131072, 262144]",U299,"['', 'ПН-ВС 09:00-21:00', '', '']",Краснодар,"Краснодар, ул. Ставропольская, д.189/1",39.041851,45.016869,596,True,,
"[1, 2, 4, 8, 16, 32, 64, 128, 256, 512, 2048, 8192, 16384, 131072, 262144, 524288, 33554432]",U342,"['', '', 'ПН-ВС 08:00-20:00', '']",Краснодар,"Краснодар, ул. Садовая ул/Северная, д.98/393",38.994043,45.037681,596,True,True,
"[1, 2, 4, 8, 16, 32, 64, 128, 256, 1024, 2048, 4096, 8192, 16384, 65536, 131072, 262144, 33554432]",U343,"['', 'ПН-ВС 08:30-20:30', '', '']",Краснодар,"Краснодар, ул. 40 лет Победы, д.34",39.003736,45.054684,596,True,,
"[1, 2, 4, 8, 16, 32, 128, 256, 1024, 2048, 4096, 8192, 16384, 131072, 262144]",U409,"['', 'ПН-ВС 09:00-21:00', '', '']",Краснодар,"Краснодар, ул. Сормовская, д.110/5",39.094124,45.032216,596,True,,
"[1, 2, 4, 8, 16, 32, 128, 256, 1024, 2048, 4096, 8192, 16384, 131072, 262144]",U431,"['', '', 'ПН-ВС 10:00-22:00', '']",Краснодар,"Краснодар, ул. им. Александра Покрышкина, д.34",38.983578,45.101846,596,True,,
"[1, 2, 4, 8, 16, 32, 128, 256, 1024, 2048, 4096, 8192, 16384, 262144]",U437,"['', '', 'ПН-ВС 10:00-22:00', '']",Краснодар,"Краснодар, ул. Крылатая, д.2",39.122529,45.011446,596,True,,
"[1, 4, 8, 1024, 2048, 67108864]",U708_fr,"['', '', 'ПН-ВС 10:00-22:00', '']",Краснодар,"Краснодар, ул. Красная, д.176",38.979894,45.04524,596,,,
"[1, 4, 8, 67108864]",U747_fr,"['', 'ПН-ВС 10:00-19:00', '', '']",Краснодар,"Краснодар, ул. Российская, д.255/9",39.014057,45.085837,596,,,
"[1, 4, 8, 2048, 67108864]",Y917_fr,"['', 'ПН-ВС 09:00-20:00', '', '']",Краснодар,"Краснодар, ул. Гаврилова, д.113",38.984656,45.054041,596,,,
"[1, 2, 4, 8, 16, 32, 64, 128, 256, 2048, 8192, 16384, 131072, 262144, 33554432]",C223,"['', '', 'ПН-ПТ 09:00-19:00, СБ-ВС 09:00-18:00', '']",Шуя,"Шуя, ул. Советская, д.2",41.369036,56.850698,627,True,,
"[1, 2, 4, 8, 16, 32, 64, 128, 256, 2048, 8192, 16384, 262144, 33554432]",E914,"['', '', 'ПН-ВС 09:00-19:00', '']",Шуя,"Шуя, ул. Ленина, д.26",41.3826,56.853799,627,True,,
"[1, 4, 8, 67108864]",HE84_fr,"['', '', 'ПН-ПТ 09:00-18:00; СБ-ВС 09:00-16:00', '']",Шуя,"Шуя, ул. Свердлова, д.117",41.390982,56.835776,627,,,
"[1, 4, 8, 1024, 2048, 67108864]",U768_fr,"['', '', 'ПН-ВС 9:00-21:00', '']",Шуя,"Шуя, ул. Васильевская, д.2",41.377031,56.851756,627,,,
"[1, 4, 8, 2048, 67108864]",Y759_fr,"['', '', 'ПН-ВС 9:00-19:00', '']",Шуя,"Шуя, ул. Ленина, д.16",41.380328,56.853626,627,,,
"[1, 2, 4, 8, 16, 32, 64, 128, 256, 2048, 8192, 16384, 262144, 33554432]",E691,"['', 'ПН-ВС 09:00-19:00', '', '']",Чита,"Чита, ул. Бутина, д.58",113.510868,52.044532,643,True,,
"[1, 2, 4, 8, 16, 32, 128, 256, 1024, 2048, 4096, 8192, 16384, 262144]",G752,"['', '', 'ПН-ВС 09:00-21:00', '']",Чита,"Чита, ул. Ленина, д.125",113.493144,52.036201,643,True,,
"[1, 2, 4, 8, 16, 32, 128, 256, 2048, 8192, 16384, 262144]",G758,"['', 'ПН-ВС 10:00-20:00', '', '']",Чита,"Чита, ул. Бутина, д.8 А",113.497142,52.031186,643,True,,
"[1, 2, 4, 8, 16, 32, 128, 256, 2048, 8192, 16384, 262144]",G759,"['', '', 'ПН-ВС 10:00-20:00', '']",Чита,"Чита, ул. Журавлева, д.79",113.504948,52.044427,643,True,,
"[1, 2, 4, 8, 16, 32, 128, 256, 2048, 8192, 16384]",G876,"['', '', 'ПН-ВС 10:00-18:00', '']",Чита,"Чита, ул. Ленина, д.128 А",113.492587,52.037004,643,,,
"[1, 2, 4, 8, 16, 32, 64, 128, 256, 2048, 8192, 16384, 33554432]",G951,"['', 'ПН-ВС 09:00-19:00', '', '']",Чита,"Чита, ул. Богомягкова, д.22",113.495363,52.040882,643,,,
"[1, 2, 4, 8, 16, 32, 128, 256, 1024, 2048, 4096, 8192, 16384]",H549,"['', '', 'ПН-ВС 10:00-22:00', '']",Чита,"Чита, ул. Новобульварная, д.55 стр 6 пом 2",113.506915,52.047075,643,,,
"[1, 2, 4, 8, 16, 32, 128, 256, 2048, 8192, 16384, 131072, 262144]",S084,"['', '', 'ПН-ВС 09:00-20:00', '']",Чита,"Чита, ул. Ленина, д.56",113.50952,52.030383,643,True,,
"[1, 2, 4, 8, 16, 32, 128, 256, 512, 1024, 2048, 4096, 8192, 16384, 131072, 262144, 524288]",S257,"['', 'ПН-ВС 09:00-21:00', '', '']",Чита,"Чита, ул. Бабушкина, д.64",113.503241,52.038644,643,True,True,
"[1, 2, 4, 8, 16, 32, 128, 256, 1024, 2048, 4096, 8192, 16384, 65536, 131072, 262144]",S264,"['', 'ПН-ВС 10:00-22:00', '', '']",Чита,"Чита, ул. Шилова, д.100, стр.2",113.497294,52.065593,643,True,,
"[1, 2, 4, 8, 16, 32, 128, 256, 1024, 2048, 4096, 8192, 16384, 65536, 131072, 262144]",S265,"['', 'ПН-ВС 09:00-21:00', '', '']",Чита,"Чита, 5 микрорайон, д.30",113.392748,52.070144,643,True,,
"[1, 2, 4, 8, 16, 32, 128, 256, 1024, 2048, 4096, 8192, 16384, 131072, 262144]",S266,"['', 'ПН-ВС 09:00-21:00', '', '']",Чита,"Чита, ул. Бабушкина, д.98",113.494896,52.042006,643,True,,
"[1, 2, 4, 8, 16, 32, 128, 256, 1024, 2048, 4096, 8192, 16384, 131072, 262144]",S360,"['', '', 'ПН-ВС 09:00-21:00', '']",Чита,"Чита, ул. Амурская, д.84",113.498642,52.030333,643,True,,
"[1, 2, 4, 8, 16, 32, 128, 256, 1024, 2048, 4096, 8192, 16384, 131072, 262144]",S363,"['', '', 'ПН-ВС 09:00-21:00', '']",Чита,"Чита, ул. Ленина, д.125",113.493144,52.036201,643,True,,
"[1, 4, 8, 2048, 67108864]",U298_fr,"['', '', 'ПН-СБ 10:00-20:00, ВС 11:00-19:00', '']",Чита,"Чита, ул. Онискевича, д.19А",113.450061,52.032372,643,,,
"[1, 4, 8, 67108864]",U339_fr,"['ПН-ВС 10:00-20:00', '', '', '']",Чита,"Чита, ул. Бабушкина, д.33",113.521683,52.030549,643,,,
"[1, 4, 8, 2048, 67108864]",Y608_fr,"['', '', 'ПН-СБ 10:00-20:00, ВС 11:00-19:00', '']",Чита,"Чита, ул. Фадеева, д.14ж",113.3877,52.070869,643,,,
"[1, 4, 8, 2048, 67108864]",Y710_fr,"['', 'ПН-ВС 10:00-19:00 ПЕРЕРЫВ 13:00-14:00', '', '']",Чита,"Чита, ул. Красной Звезды, д.58",113.482733,52.074544,643,,,
"[1, 4, 8, 2048, 67108864]",Y989_fr,"['', '', 'ПН-СБ 09:00-19:00 ПЕРЕРЫВ 13:00-14:00; ВС - ВЫХОДНОЙ', '']",Чита,"Чита, ул. Комсомольская, д.105а",113.46544,52.041862,643,,,
"[1, 2, 4, 8, 16, 32, 64, 128, 256, 1024, 2048, 4096, 8192, 16384, 262144, 33554432]",F235,"['', '', 'ПН-ВС 09:00-21:00', '']",Дзержинск,"Дзержинск, пр-т Чкалова, д.23",43.46344,56.247881,617,True,,
"[1, 2, 4, 8, 16, 32, 64, 128, 256, 1024, 2048, 4096, 8192, 16384, 131072, 262144, 33554432]",P115,"['', 'ПН-ВС 09:00-21:00', '', '']",Дзержинск,"Дзержинск, пл. Привокзальная",43.454475,56.228991,617,True,,
"[1, 2, 4, 8, 16, 32, 64, 128, 256, 2048, 8192, 16384, 65536, 131072, 262144, 33554432]",P123,"['', 'ПН-ВС 08:00-20:00', '', '']",Дзержинск,"Дзержинск, ул. Циолковского, д.76",43.400854,56.227545,617,True,,
"[1, 2, 4, 8, 16, 32, 128, 256, 1024, 2048, 4096, 8192, 16384, 131072, 262144]",P221,"['', '', 'ПН-ВС 09:00-21:00', '']",Дзержинск,"Дзержинск, Ленина пр-т, д.66",43.46282,56.236986,617,True,,
"[1, 2, 4, 8, 16, 32, 64, 128, 256, 2048, 8192, 16384, 131072, 262144, 33554432]",P502,"['', '', 'ПН-ВС 08:00-20:00', '']",Дзержинск,"Дзержинск, ул. Октябрьская, д.24",43.465479,56.232023,617,True,,
"[1, 2, 4, 8, 16, 32, 64, 128, 256, 512, 2048, 8192, 16384, 65536, 131072, 262144, 524288, 33554432]",D088,"['', 'ПН-ПТ 09:00-19:00, СБ-ВС 10:00-19:00', '', '']",Находка,"Находка, ул. Портовая, д.3",132.893125,42.822919,628,True,True,
"[1, 2, 4, 8, 16, 32, 128, 256, 2048, 8192, 16384, 65536, 131072, 262144]",D166,"['', '', 'ПН-ВС 10:00-20:00', '']",Находка,"Находка, Мира пр-кт, рынок Балкия",132.889253,42.834669,628,True,,
"[1, 2, 4, 8, 16, 32, 64, 128, 256, 2048, 8192, 16384, 262144, 33554432]",D176,"['', '', 'ПН-ВС 09:00-20:00', '']",Находка,"Находка, ул. Ленинская, д.2",132.871601,42.810308,628,True,,
"[1, 2, 4, 8, 16, 32, 64, 128, 256, 1024, 2048, 4096, 8192, 16384, 262144, 33554432]",E919,"['', '', 'ПН-ВС 10:00-21:00', '']",Находка,"Находка, ул. Спортивная, д.2",132.853779,42.77844,628,True,,
"[1, 2, 4, 8, 16, 32, 128, 256, 2048, 8192, 16384, 262144]",G751,"['', '', 'ПН-ВС 10:00-19:00', '']",Находка,"Находка, пр-т Мира, д.3, ост. Балкия",132.892505,42.832712,628,True,,
"[1, 2, 4, 8, 16, 32, 64, 128, 256, 2048, 8192, 16384, 131072, 262144, 33554432]",D029,"['', '', 'ПН-ВС 09:00-20:00', '']",Белогорск,"Белогорск, ул. Кирова, д.117",128.477833,50.920605,634,True,,
"[1, 2, 4, 8, 16, 32, 128, 256, 2048, 8192, 16384, 131072, 262144]",D073,"['', 'ПН-ПТ 08:30-20:00, СБ-ВС 10:00-20:00', '', '']",Белогорск,"Белогорск, ул. Кирова, д.81",128.470027,50.922735,634,True,,
"[1, 2, 4, 8, 16, 32, 128, 256, 2048, 8192, 16384, 131072, 262144]",D157,"['', '', 'ПН-ВС 09:00-20:00', '']",Белогорск,"Белогорск, ул. Кирова, д.121",128.481067,50.920242,634,True,,
"[1, 4, 8, 1024, 2048, 67108864]",P105_fr,"['', '', 'ПН-ВС 9:00-22:00', '']",Белогорск,"Белогорск, ул. Ленина, д.30",128.471473,50.917426,634,,,
"[1, 2, 4, 8, 16, 32, 128, 256, 1024, 2048, 4096, 8192, 16384, 262144]",E308,"['ПН-ВС 10:00-21:00', '', '', '']",Волгоград,"Волгоград, пр-т Университетский, д.107",44.436073,48.636558,648,True,,
"[1, 2, 4, 8, 16, 32, 128, 256, 2048, 8192, 16384, 65536, 262144]",E813,"['', '', 'ПН-ВС 09:30-20:00', '']",Волгоград,"Волгоград, ул. Невская, д.12 В",44.508827,48.718166,648,True,,
"[1, 2, 4, 8, 16, 32, 128, 256, 2048, 8192, 16384, 262144]",F005,"['', 'ПН-ВС 09:00-20:00', '', '']",Волгоград,"Волгоград, ул. Историческая, д.154",44.474548,48.768618,648,True,,
"[1, 2, 4, 8, 16, 32, 64, 128, 256, 2048, 8192, 16384, 262144, 33554432]",F041,"['', '', 'ПН-ВС 08:00-19:00', '']",Волгоград,"Волгоград, ул. 64 Армии, д.4",44.42205,48.600584,648,True,,
"[1, 2, 4, 8, 16, 32, 64, 128, 256, 2048, 8192, 16384, 262144, 33554432]",F086,"['', 'ПН-ВС 09:00-20:00', '', '']",Волгоград,"Волгоград, ул. 8 Воздушной Армии, д.48",44.502342,48.757085,648,True,,
"[-2097152, 1, 2, 4, 8, 16, 32, 128, 256, 1024, 2048, 4096, 8192, 16384]",F458,"['', '', 'ПН-ВС 09:30-20:30', '']",Волгоград,"Волгоград, б-р 30-летия Победы, д.21",44.496727,48.749072,648,,,
"[1, 2, 4, 8, 16, 32, 128, 256, 1024, 2048, 4096, 8192, 16384, 262144]",G626,"['', 'ПН-ВС 09:00-21:00', '', '']",Волгоград,"Волгоград, ул. Казахская, д.27 Д",44.444769,48.675487,648,True,,
"[1, 2, 4, 8, 16, 32, 128, 256, 2048, 8192, 16384]",G817,"['', '', 'ПН-ВС 09:00-20:00', '']",Волгоград,"Волгоград, ул. Еременко, д.100",44.555234,48.777269,648,,,
"[1, 2, 4, 8, 16, 32, 128, 256, 2048, 8192, 16384]",G869,"['', '', 'ПН-ВС 09:00-18:30', '']",Волгоград,"Волгоград, ул. Ополченская, д.14",44.597293,48.800864,648,,,
"[1, 4, 8, 67108864]",IE74_fr,"['', 'ПН-ВС 09:00-20:00', '', '']",Волгоград,"Волгоград, пр-т Ленина, д.43В",44.534322,48.722392,648,,,
"[1, 2, 4, 8, 16, 32, 128, 256, 2048, 8192, 16384, 65536, 131072, 262144]",U119,"['', '', 'ПН-ВС 10:00-20:00', '']",Волгоград,"Волгоград, б-р 30-летия Победы, д.21",44.496727,48.749072,648,True,,
"[1, 2, 4, 8, 16, 32, 128, 256, 2048, 8192, 16384, 131072, 262144]",U121,"['', 'ПН-ВС 08:00-20:00', '', '']",Волгоград,"Волгоград, пр-т Героев Сталинграда, д.39",44.541032,48.514839,648,True,,
"[1, 2, 4, 8, 16, 32, 128, 256, 2048, 8192, 16384, 65536, 131072, 262144]",U122,"['', 'ПН-ВС 08:00-19:00', '', '']",Волгоград,"Волгоград, пр-т Героев Сталинграда, д.3 А",44.563768,48.517817,648,True,,
"[1, 2, 4, 8, 16, 32, 128, 256, 2048, 8192, 16384, 131072, 262144]",U125,"['', 'ПН-ВС 09:00-18:00', '', '']",Волгоград,"Волгоград, пр-т Металлургов, д.34, павильон",44.54821,48.770625,648,True,,
"[1, 2, 4, 8, 16, 32, 128, 256, 2048, 8192, 16384, 65536, 131072, 262144]",U126,"['', '', 'ПН-ВС 09:00-19:00', '']",Волгоград,"Волгоград, пр-т Университетский, д.62/1, павильон",44.437699,48.658701,648,True,,
"[1, 2, 4, 8, 16, 32, 128, 256, 2048, 8192, 16384, 131072, 262144]",U128,"['', '', 'ПН-ВС 09:00-19:00', '']",Волгоград,"Волгоград, ул. Качинцев, д.87, павильон",44.498874,48.735954,648,True,,
"[1, 2, 4, 8, 16, 32, 64, 128, 256, 2048, 8192, 16384, 131072, 262144, 33554432]",U129,"['', 'ПН-ВС 09:00-19:30', '', '']",Волгоград,"Волгоград, ул. Маршала Еременко, д.130",44.565053,48.784316,648,True,,
"[1, 2, 4, 8, 16, 32, 64, 128, 256, 2048, 8192, 16384, 65536, 131072, 262144, 33554432]",U131,"['', '', 'ПН-ВС 08:00-20:00', '']",Волгоград,"Волгоград, ул. Николая Отрады, д.13 К",44.632543,48.820218,648,True,,
"[1, 2, 4, 8, 16, 32, 128, 256, 2048, 8192, 16384, 65536, 131072, 262144]",U262,"['', 'ПН-ВС 09:00-20:00', '', '']",Волгоград,"Волгоград, ул. Историческая, д.175",44.478042,48.756355,648,True,,
"[1, 2, 4, 8, 16, 32, 128, 256, 2048, 8192, 16384, 262144]",U347,"['', '', 'ПН-ВС 10:00-20:00', '']",Волгоград,"Волгоград, ул. им Землячки, д.110 Б",44.519401,48.74388,648,True,,
"[1, 2, 4, 8, 16, 32, 128, 256, 1024, 2048, 4096, 8192, 16384, 65536, 131072, 262144]",U370,"['', 'ПН-ВС 10:00-22:00', '', '']",Волгоград,"Волгоград, ул. Рабоче-Крестьянская, д.9 Б",44.502018,48.697036,648,True,,
"[1, 2, 4, 8, 16, 32, 128, 256, 2048, 8192, 16384, 131072, 262144]",U396,"['', '', 'ПН-ВС 09:00-19:00', '']",Волгоград,"Волгоград, пр-т Ленина, д.15",44.519104,48.708982,648,True,,
"[1, 2, 4, 8, 16, 32, 64, 128, 256, 2048, 8192, 16384, 131072, 262144, 33554432]",U426,"['', 'ПН-ВС 09:00-20:00', '', '']",Волгоград,"Волгоград, ул. Елецкая, д.10",44.485318,48.70133,648,True,,
"[1, 2, 4, 8, 16, 32, 128, 256, 2048, 8192, 16384, 131072, 262144]",U430,"['', '', 'ПН-ВС 09:00-20:00', '']",Волгоград,"Волгоград, ул. Краснознаменская, д.9",44.509483,48.704273,648,True,,
"[1, 2, 4, 8, 16, 32, 64, 128, 256, 2048, 8192, 16384, 131072, 262144, 33554432]",U433,"['', '', 'ПН-ВС 10:00-19:00', '']",Волгоград,"Волгоград, пл. Дзержинского, д.1Б",44.604758,48.799665,648,True,,
"[1, 2, 4, 8, 16, 32, 64, 128, 256, 1024, 2048, 4096, 8192, 16384, 262144, 33554432]",D703,"['', '', 'ПН-ВС 09:00-21:00', '']",Саратов,"Саратов, пр-т Строителей",45.968655,51.595444,636,True,,
"[1, 4, 8, 67108864]",DE67_fr,"['', '', 'ПН-ВС 8:30-18:00, ПЕРЕРЫВ 13:00-14:00', '']",Саратов,"Саратов, ул. Барнаульская, д.1а",45.929621,51.498174,636,,,
"[1, 4, 8, 67108864]",DE68_fr,"['', '', 'ПН-ВС 8:30-18:00, ПЕРЕРЫВ 13:00-14:00', '']",Саратов,"Саратов, пр-т 50 лет Октября, д.93Г",45.96832,51.576676,636,,,
"[1, 2, 4, 8, 16, 32, 64, 128, 256, 1024, 4096, 8192, 16384, 262144, 33554432]",E354,"['', 'ПН-ВС 09:00-21:00', '', '']",Саратов,"Саратов, ул. Танкистов, д.б/н, в районе ТК Форум",46.014761,51.546919,636,True,,
"[1, 2, 4, 8, 16, 32, 64, 128, 256, 1024, 2048, 4096, 8192, 16384, 65536, 262144, 33554432]",E402,"['', 'ПН-ВС 10:00-21:00', '', '']",Саратов,"Саратов, пл. Орджоникидзе, д.1",45.950528,51.501805,636,True,,
"[1, 2, 4, 8, 16, 32, 64, 128, 256, 1024, 2048, 4096, 8192, 16384, 262144, 33554432]",E498,"['', '', 'ПН-ВС 08:00-21:00', '']",Саратов,"Саратов, ул. Аткарская, д.66, корп.A",45.998726,51.537577,636,True,,
"[1, 2, 4, 8, 16, 32, 64, 128, 256, 1024, 2048, 4096, 8192, 16384, 65536, 262144, 33554432]",E515,"['ПН-ВС 10:00-21:00', '', '', '']",Саратов,"Саратов, Ново-Астраханское ш., д.80",45.920171,51.494299,636,True,,
"[1, 2, 4, 8, 16, 32, 64, 128, 256, 1024, 2048, 4096, 8192, 16384, 65536, 262144, 33554432]",E590,"['', '', 'ПН-ВС 10:00-21:00', '']",Саратов,"Саратов, ул. Верхняя, д.17",45.974869,51.510356,636,True,,
"[1, 2, 4, 8, 16, 32, 64, 128, 256, 2048, 8192, 16384, 262144, 33554432]",E949,"['', 'ПН-ВС 08:00-19:00', '', '']",Саратов,"Саратов, ул. Б.Горная, д.310 А",46.017889,51.54671,636,True,,
"[1, 2, 4, 8, 16, 32, 64, 128, 256, 1024, 2048, 4096, 8192, 16384, 262144, 33554432]",F065,"['', '', '', 'ПН-ВС 10:00-22:00']",Саратов,"Саратов, ул. 3-я Дачная, д.ТЦ Тау Галерея",45.973719,51.577303,636,True,,
"[1, 4, 8, 1024, 67108864]",FE20_fr,"['', 'ПН-ВС 9:00-21:00', '', '']",Саратов,"Саратов, пр-т Кирова, д.5",46.032954,51.530094,636,,,
"[1, 2, 4, 8, 16, 32, 64, 128, 256, 1024, 2048, 4096, 8192, 16384, 262144, 33554432]",G127,"['', 'ПН-ВС 10:00-22:00', '', '']",Саратов,"Саратов, ул. Зарубина, д.167",46.014206,51.541568,636,True,,
"[1, 2, 4, 8, 16, 32, 64, 128, 256, 1024, 2048, 4096, 8192, 16384, 33554432]",G891,"['', '', 'ПН-ВС 10:00-22:00', '']",Саратов,"Саратов, ул. им. Василия Люкшина, д.5, корп.ТЦ Победа Плаза",46.017737,51.5315,636,,,
"[1, 2, 4, 8, 16, 32, 64, 128, 256, 1024, 2048, 4096, 8192, 16384, 33554432]",H375,"['', 'ПН-ВС 09:00-21:00', '', '']",Саратов,"Саратов, ул. Вавилова ул /Рахова",46.01055,51.5348,636,,,
"[1, 4, 8, 1024, 67108864]",HE85_fr,"['', '', 'ПН-ВС 10:00-22:00', '']",Саратов,"Саратов, ул. Орджоникидзе, д.1 (Вход №2)",45.697103,51.024043,636,,,
"[1, 2, 4, 8, 16, 32, 64, 128, 256, 1024, 2048, 4096, 8192, 16384, 131072, 262144, 33554432]",P285,"['', '', 'ПН-ВС 09:00-21:00', '']",Саратов,"Саратов, 2-я Садовая ул / Б.Садовая",45.987302,51.52978,636,True,,
"[1, 2, 4, 8, 16, 32, 64, 128, 256, 1024, 2048, 4096, 8192, 16384, 131072, 262144, 33554432]",P290,"['', '', 'ПН-ВС 09:00-21:00', '']",Саратов,"Саратов, ул. Тархова, д.29а",46.001603,51.610258,636,True,,
"[1, 2, 4, 8, 16, 32, 64, 128, 256, 1024, 2048, 4096, 8192, 16384, 131072, 262144, 33554432]",P291,"['', 'ПН-ВС 09:00-21:00', '', '']",Саратов,"Саратов, ул. Чапаева, д.35",46.017251,51.526788,636,True,,
"[1, 2, 4, 8, 16, 32, 64, 128, 256, 512, 1024, 2048, 4096, 8192, 16384, 131072, 262144, 524288, 33554432]",P527,"['', 'ПН-ВС 09:00-21:00', '', '']",Саратов,"Саратов, ул. Международная, д.2",45.967799,51.581243,636,True,True,
"[1, 2, 4, 8, 16, 32, 64, 128, 256, 512, 2048, 8192, 16384, 131072, 262144, 524288, 33554432]",P528,"['', '', 'ПН-ВС 08:00-20:00', '']",Саратов,"Саратов, ул. Московская, д.135/144",46.017943,51.537237,636,True,True,
"[1, 2, 4, 8, 16, 32, 64, 128, 256, 2048, 8192, 16384, 131072, 262144, 33554432]",P569,"['', '', 'ПН-ВС 08:00-20:00', '']",Саратов,"Саратов, Астраханская ул/Большая Горная ул. Сенной рынок",46.017578,51.546514,636,True,,
"[1, 2, 4, 8, 16, 32, 64, 128, 256, 2048, 8192, 16384, 131072, 262144, 33554432]",P605,"['ПН-ВС 08:00-20:00', '', '', '']",Саратов,"Саратов, ул. Лебедева-Кумача, д.70",45.977555,51.607641,636,True,,
"[1, 2, 4, 8, 16, 32, 64, 128, 256, 2048, 8192, 16384, 131072, 262144, 33554432]",P676,"['', '', 'ПН-ВС 09:00-20:00', '']",Саратов,"Саратов, ул. Усть-Курдюмская, д.13",46.073297,51.574124,636,True,,
"[1, 2, 4, 8, 16, 32, 64, 128, 256, 1024, 2048, 4096, 8192, 16384, 131072, 262144, 33554432]",P725,"['', 'ПН-ВС 08:00-21:00', '', '']",Саратов,"Саратов, ул. Академика Навашина ул/Танкистов",46.022138,51.566768,636,True,,
"[1, 2, 4, 8, 16, 32, 64, 128, 256, 1024, 2048, 4096, 8192, 16384, 131072, 262144, 33554432]",P733,"['', '', '', 'ПН-ВС 09:00-22:00']",Саратов,"Саратов, пр-т Кирова С.М., д.23",46.028391,51.531069,636,True,,
"[1, 2, 4, 8, 16, 32, 64, 128, 256, 1024, 2048, 4096, 8192, 16384, 131072, 262144, 33554432]",P741,"['ПН-ВС 09:00-21:00', '', '', '']",Саратов,"Саратов, ул. Чернышевского, д.184",46.051971,51.528817,636,True,,
"[1, 2, 4, 8, 16, 32, 64, 128, 256, 2048, 8192, 16384, 131072, 262144, 33554432]",P776,"['', '', '', 'ПН-ВС 08:00-20:00']",Саратов,"Саратов, пр-т Энтузиастов, д.20",45.946644,51.504341,636,True,,
"[1, 2, 4, 8, 16, 32, 64, 128, 256, 512, 2048, 8192, 16384, 65536, 131072, 262144, 524288, 33554432]",C168,"['', 'ПН-ПТ 09:00-20:00, СБ-ВС 10:00-19:00', '', '']",Владимир,"Владимир, ул. Кирова, д.14б",40.40049,56.140505,599,True,True,
"[1, 2, 4, 8, 16, 32, 64, 128, 256, 2048, 8192, 16384, 131072, 262144, 33554432]",C169,"['', '', 'ПН-ПТ 09:00-19:00, СБ-ВС 10:00-19:00', '']",Владимир,"Владимир, ул. Разина, д.22",40.366076,56.118415,599,True,,
"[1, 2, 4, 8, 16, 32, 64, 128, 256, 2048, 8192, 16384, 262144, 33554432]",D843,"['ПН-ПТ 09:00-19:00, СБ-ВС 10:00-19:00', '', '', '']",Владимир,"Владимир, ул. Коммисарова, д.20",40.46057,56.166331,599,True,,
"[1, 2, 4, 8, 16, 32, 128, 256, 2048, 8192, 16384, 262144]",E099,"['', '', '', 'ПН-ВС 09:00-19:00']",Владимир,"Владимир, ул. Горького, д.84",40.375849,56.149376,599,True,,
"[1, 2, 4, 8, 16, 32, 128, 256, 2048, 8192, 16384, 262144]",E696,"['', 'ПН-ВС 09:00-19:00', '', '']",Владимир,"Владимир, ул. Егорова, д.8",40.478347,56.168887,599,True,,
"[1, 2, 4, 8, 16, 32, 128, 256, 8192, 16384, 262144]",E957,"['', '', '', 'ПН-ВС 09:00-19:00']",Владимир,"Владимир, пр-т Строителей, д.46",40.357982,56.133146,599,True,,
"[1, 2, 4, 8, 16, 32, 128, 256, 1024, 2048, 4096, 8192, 16384, 262144]",F436,"['ПН-ВС 09:00-21:00', '', '', '']",Владимир,"Владимир, ул. Большая Московская, д.19, ТЦ Торговые Ряды (старые)",40.403949,56.12848,599,True,,
"[1, 2, 4, 8, 16, 32, 128, 256, 1024, 2048, 4096, 8192, 16384, 262144]",F903,"['', 'ПН-ВС 09:00-21:00', '', '']",Владимир,"Владимир, Московское ш., д.2",40.3272,56.1123,599,True,,
"[1, 2, 4, 8, 16, 32, 128, 256, 2048, 8192, 16384, 262144]",G614,"['', 'ПН-ВС 09:00-19:00', '', '']",Владимир,"Владимир, пр-т Суздальский, д.15",40.462537,56.168792,599,True,,
"[1, 4, 8, 2048, 67108864]",HE24_fr,"['', 'ПН-ПТ 9:00-20:00, СБ-ВС 9:00-19:00', '', '']",Владимир,"Владимир, ул. Мира, д.42",40.419319,56.144577,599,,,
"[1, 4, 8, 67108864]",DE50_fr,"['', 'ПН-ВС 09:00-19:00, ПЕРЕРЫВ 12:00-12:30', '', '']",Улан-Удэ,"Улан-Удэ, ул. Советская, д.1/4",107.578645,51.830256,610,,,
"[1, 4, 8, 67108864]",DE90_fr,"['', '', 'ПН-ВС 09:00-20:00, ПЕРЕРЫВ 12:30-13:30', '']",Улан-Удэ,"Улан-Удэ, ул. Ключевская, д.76а",107.658478,51.82032,610,,,
"[1, 2, 4, 8, 16, 32, 128, 256, 1024, 2048, 4096, 8192, 16384, 262144]",E725,"['', '', 'ПН-ВС 09:00-21:00', '']",Улан-Удэ,"Улан-Удэ, ул. Терешковой, д.24 А",107.609161,51.80938,610,True,,
"[1, 2, 4, 8, 16, 32, 128, 256, 1024, 2048, 4096, 8192, 16384, 262144]",F059,"['', '', 'ПН-ВС 10:00-21:45', '']",Улан-Удэ,"Улан-Удэ, ул. Корабельная, д.41",107.577762,51.83076,610,True,,
"[1, 2, 4, 8, 16, 32, 128, 256, 1024, 2048, 4096, 8192, 16384, 262144]",F935,"['', 'ПН-ВС 10:00-21:45', '', '']",Улан-Удэ,"Улан-Удэ, ул. Жердева, д.104 Б",107.663554,51.812069,610,True,,
"[1, 2, 4, 8, 16, 32, 64, 128, 256, 1024, 2048, 4096, 8192, 16384, 262144, 33554432]",G458,"['', '', 'ПН-ВС 09:00-21:00', '']",Улан-Удэ,"Улан-Удэ, ул. Жердева, д.104",107.661623,51.810649,610,True,,
"[1, 2, 4, 8, 16, 32, 128, 256, 2048, 8192, 16384, 262144]",G722,"['', 'ПН-ВС 09:30-19:30', '', '']",Улан-Удэ,"Улан-Удэ, ул. Балтахинова, д.15",107.589659,51.826527,610,True,,
"[1, 2, 4, 8, 16, 32, 128, 256, 1024, 2048, 4096, 8192, 16384]",G770,"['', '', 'ПН-ВС 10:00-22:00', '']",Улан-Удэ,"Улан-Удэ, ул. Ленина, д.39",107.583757,51.830601,610,,,
"[1, 2, 4, 8, 16, 32, 128, 256, 2048, 8192, 16384]",H336,"['', '', 'ПН-ВС 09:00-20:00', '']",Улан-Удэ,"Улан-Удэ, ул. Терешковой, д.40",107.614542,51.809558,610,,,
"[1, 2, 4, 8, 16, 32, 64, 128, 256, 2048, 8192, 16384, 33554432]",H364,"['', 'ПН-ВС 09:00-20:00', '', '']",Улан-Удэ,"Улан-Удэ, ул. Туполева, д.9/1",107.743432,51.864946,610,,,
"[1, 2, 4, 8, 16, 32, 64, 128, 256, 2048, 8192, 16384, 33554432]",H543,"['', 'ПН-ВС 09:00-20:00', '', '']",Улан-Удэ,"Улан-Удэ, ул. Смолина, д.81",107.576705,51.839778,610,,,
"[1, 2, 4, 8, 16, 128, 256, 1024, 2048, 4096, 8192, 16384]",H712,"['', '', 'ПН-ВС 10:00-20:45', '']",Улан-Удэ,"Улан-Удэ, ул. Ключевская, д.39б",107.645067,51.82282,610,,,
"[1, 2, 4, 8, 16, 32, 128, 256, 2048, 8192, 16384, 131072, 262144]",S057,"['', 'ПН-ВС 10:00-20:00', '', '']",Улан-Удэ,"Улан-Удэ, ул. Гагарина, д.25",107.593836,51.837569,610,True,,
"[1, 2, 4, 8, 16, 32, 128, 256, 2048, 8192, 16384, 65536, 131072, 262144]",S064,"['', '', 'ПН-ВС 10:00-20:00', '']",Улан-Удэ,"Улан-Удэ, ул. Гагарина, д.25",107.593836,51.837569,610,True,,
"[1, 2, 4, 8, 16, 32, 128, 256, 1024, 2048, 4096, 8192, 16384, 131072, 262144]",S074,"['', '', 'ПН-ВС 09:00-21:00', '']",Улан-Удэ,"Улан-Удэ, ул. Ленина, д.26",107.584853,51.827646,610,True,,
"[1, 2, 4, 8, 16, 32, 128, 256, 2048, 8192, 16384, 65536, 131072, 262144]",S089,"['', '', 'ПН-ВС 09:00-20:00', '']",Улан-Удэ,"Улан-Удэ, ул. Коммунистическая, д.41 А",107.587053,51.831002,610,True,,
"[1, 2, 4, 8, 16, 32, 128, 256, 1024, 2048, 4096, 8192, 16384, 131072, 262144]",S184,"['', '', 'ПН-ВС 09:00-21:00', '']",Улан-Удэ,"Улан-Удэ, ул. Гагарина, д.возле д.24",107.59124,51.84201,610,True,,
"[1, 2, 4, 8, 16, 32, 64, 128, 256, 1024, 2048, 4096, 8192, 16384, 131072, 262144, 33554432]",S185,"['', 'ПН-ВС 09:00-21:00', '', '']",Улан-Удэ,"Улан-Удэ, ул. Ключевская, д.30",107.633604,51.820649,610,True,,
"[1, 2, 4, 8, 16, 32, 64, 128, 256, 512, 1024, 2048, 4096, 8192, 16384, 65536, 131072, 262144, 524288, 33554432]",S186,"['', '', 'ПН-ВС 09:00-21:00', '']",Улан-Удэ,"Улан-Удэ, ул. Ленина, д.27",107.584269,51.827535,610,True,True,
"[1, 2, 4, 8, 16, 32, 64, 128, 256, 1024, 2048, 4096, 8192, 16384, 131072, 262144, 33554432]",S380,"['', '', 'ПН-ВС 09:00-21:00', '']",Улан-Удэ,"Улан-Удэ, пр-т 50-летия Октября, д.8",107.595048,51.836729,610,True,,
"[1, 2, 4, 8, 16, 32, 128, 256, 2048, 8192, 16384, 262144]",S394,"['', 'ПН-ВС 10:00-20:00', '', '']",Улан-Удэ,"Улан-Удэ, пр-т Автомобилистов, д.4А/1",107.659961,51.834481,610,True,,
"[1, 4, 8, 67108864]",S739_fr,"['', 'ПН-ВС 10:00-19:00, ПЕРЕРЫВ 13:30-14:30', '', '']",Улан-Удэ,"Улан-Удэ, ул. Кабанская, д.8б",107.516149,51.844937,610,,,
"[1, 4, 8, 2048, 67108864]",T760_fr,"['', 'ПН-ВС 09:00-18:00, ПЕРЕРЫВ 13:00-14:00', '', '']",Улан-Удэ,"Улан-Удэ, ул. Сухэ-Батора, д.16",107.58355,51.835477,610,,,
"[1, 2, 4, 8, 16, 32, 64, 128, 256, 1024, 2048, 4096, 8192, 16384, 262144, 33554432]",D779,"['', '', 'ПН-ВС 09:00-21:00', '']",Екатеринбург,"Екатеринбург, ул. Заводская ул/Фролова",60.553568,56.839264,593,True,,
"[1, 2, 4, 8, 16, 32, 128, 256, 1024, 2048, 4096, 8192, 16384, 262144]",D823,"['', '', 'ПН-ВС 10:00-21:00', '']",Екатеринбург,"Екатеринбург, ул. Амундсена, д.63",60.576776,56.794706,593,True,,
"[1, 2, 4, 8, 16, 32, 128, 256, 1024, 2048, 4096, 8192, 16384, 262144]",D859,"['', '', 'ПН-ВС 09:00-21:00', '']",Екатеринбург,"Екатеринбург, ул. Бахчиванджи, д.14",60.818909,56.75902,593,True,,
"[1, 2, 4, 8, 16, 32, 128, 256, 1024, 2048, 4096, 8192, 16384, 262144]",E074,"['', '', 'ПН-ВС 09:00-22:00', '']",Екатеринбург,"Екатеринбург, ул. Металлургов, д.87",60.505406,56.823631,593,True,,
"[1, 2, 4, 8, 16, 32, 64, 128, 256, 1024, 2048, 4096, 8192, 16384, 262144, 33554432]",E130,"['', 'ПН-ВС 09:00-21:00', '', '']",Екатеринбург,"Екатеринбург, ул. Вильгельма де Геннина, д.34",60.518486,56.792143,593,True,,
"[1, 2, 4, 8, 16, 32, 128, 256, 1024, 2048, 4096, 8192, 16384, 262144]",E303,"['', '', 'ПН-ВС 10:00-21:00', '']",Екатеринбург,"Екатеринбург, ул. Щербакова, д.4",60.64902,56.788549,593,True,,
"[1, 2, 4, 8, 16, 32, 128, 256, 2048, 8192, 16384, 262144]",F308,"['', '', 'ПН-ВС 10:00-18:00', '']",Екатеринбург,"Екатеринбург, ул. Билимбаевская, д.15",60.516339,56.881586,593,True,,
"[1, 2, 4, 8, 16, 32, 128, 256, 1024, 2048, 4096, 8192, 16384, 262144]",F486,"['', 'ПН-ВС 10:00-22:00', '', '']",Екатеринбург,"Екатеринбург, ул. Халтурина, д.55",60.550268,56.853095,593,True,,
"[1, 2, 4, 8, 16, 32, 128, 256, 1024, 2048, 4096, 8192, 16384, 262144]",G343,"['', 'ПН-ВС 09:00-21:00', '', '']",Екатеринбург,"Екатеринбург, пр-т Космонавтов, д.23 А",60.612647,56.888707,593,True,,
"[1, 2, 4, 8, 16, 32, 128, 256, 1024, 2048, 4096, 8192, 16384, 262144]",G484,"['', '', 'ПН-ВС 09:00-21:00', '']",Екатеринбург,"Екатеринбург, пр-т Космонавтов, д.41",60.613213,56.899699,593,True,,
"[1, 2, 4, 8, 16, 32, 128, 256, 1024, 2048, 4096, 8192, 16384]",G880,"['', 'ПН-ВС 10:00-21:00', '', '']",Екатеринбург,"Екатеринбург, ул. Краснолесья, д.133",60.519537,56.793494,593,,,
"[1, 2, 4, 8, 16, 32, 128, 256, 1024, 2048, 4096, 8192, 16384]",G888,"['', '', 'ПН-ВС 09:00-21:00', '']",Екатеринбург,"Екатеринбург, ул. Бардина, д.12 (около д.15 )",60.555505,56.807038,593,,,
"[1, 2, 4, 8, 16, 32, 128, 256, 1024, 2048, 4096, 8192, 16384]",G939,"['', '', 'ПН-ВС 09:00-21:00', '']",Екатеринбург,"Екатеринбург, ул. Блюхера, д.39",60.640576,56.852381,593,,,
"[1, 2, 4, 8, 16, 32, 128, 256, 2048, 8192, 16384]",G940,"['', 'ПН-ВС 10:00-20:00', '', '']",Екатеринбург,"Екатеринбург, ул. Малышева, д.5",60.582365,56.832969,593,,,
"[1, 2, 4, 8, 16, 32, 128, 256, 1024, 2048, 4096, 8192, 16384]",H318,"['', 'ПН-ВС 09:00-21:00', '', '']",Екатеринбург,"Екатеринбург, ул. Пехотинцев, д.в районе жилого дома №5",60.554149,56.870091,593,,,
"[1, 2, 4, 8, 16, 32, 128, 256, 1024, 2048, 4096, 8192, 16384]",H551,"['', 'ПН-ВС 09:00-21:00', '', '']",Екатеринбург,"Екатеринбург, ул. Грибоедова, д.20",60.701706,56.754041,593,,,
"[1, 2, 4, 8, 16, 32, 64, 128, 256, 1024, 4096, 8192, 16384, 33554432]",H773,"['', 'ПН-ВС 09:00-20:30', '', '']",Екатеринбург,"Екатеринбург, пр-т Космонавтов, д.72",60.614821,56.90171,593,,,
"[1, 4, 8, 2048, 67108864]",U469_fr,"['', 'ПН-ВС 9:00-20:00', '', '']",Екатеринбург,"Екатеринбург, ул. Восточная, д.158",60.635626,56.830172,593,,,
"[1, 2, 4, 8, 16, 32, 128, 256, 2048, 8192, 16384, 65536, 131072, 262144]",Y001,"['', 'ПН-ВС 09:00-20:00', '', '']",Екатеринбург,"Екатеринбург, пр-т Ленина, д.41",60.60971,56.839434,593,True,,
"[1, 2, 4, 8, 16, 32, 128, 256, 1024, 2048, 4096, 8192, 16384, 65536, 131072, 262144]",Y014,"['', '', 'ПН-ВС 09:00-21:00', '']",Екатеринбург,"Екатеринбург, ул. Победы, д.57",60.592273,56.901287,593,True,,
"[1, 2, 4, 8, 16, 32, 128, 256, 1024, 2048, 4096, 8192, 16384, 131072, 262144]",Y031,"['', 'ПН-ВС 09:00-21:00', '', '']",Екатеринбург,"Екатеринбург, ул. Санаторная, д.3",60.612836,56.76864,593,True,,
"[1, 2, 4, 8, 16, 32, 128, 256, 1024, 2048, 4096, 8192, 16384, 65536, 131072, 262144]",Y076,"['', '', 'ПН-ВС 09:00-21:00', '']",Екатеринбург,"Екатеринбург, б-р Сиреневый, д.2",60.683021,56.834456,593,True,,
"[1, 2, 4, 8, 16, 32, 128, 256, 1024, 2048, 4096, 8192, 16384, 131072, 262144]",Y086,"['', '', 'ПН-ВС 09:00-21:00', '']",Екатеринбург,"Екатеринбург, ул. Викулова, д.38 Б",60.544357,56.831521,593,True,,
"[1, 2, 4, 8, 16, 32, 128, 256, 2048, 8192, 16384, 131072, 262144]",Y141,"['', '', 'ПН-ВС 09:00-20:00', '']",Екатеринбург,"Екатеринбург, ул. 8 Марта, д.145",60.61121,56.807782,593,True,,
"[1, 2, 4, 8, 16, 32, 128, 256, 2048, 8192, 16384, 131072, 262144]",Y208,"['', 'ПН-ВС 09:00-20:00', '', '']",Екатеринбург,"Екатеринбург, ул. Техническая ул/ Халтурина",60.549516,56.861235,593,True,,
"[1, 2, 4, 8, 16, 32, 128, 256, 2048, 8192, 16384, 65536, 131072, 262144]",Y244,"['', '', 'ПН-ВС 10:15-20:00', '']",Екатеринбург,"Екатеринбург, ул. Академика Шварца, д.17",60.62684,56.796949,593,True,,
"[1, 2, 4, 8, 16, 32, 128, 256, 2048, 8192, 16384, 65536, 131072, 262144]",Y251,"['ПН-ВС 10:00-20:00', '', '', '']",Екатеринбург,"Екатеринбург, ул. Малышева, д.123",60.652981,56.840803,593,True,,
"[1, 2, 4, 8, 16, 32, 128, 256, 2048, 8192, 16384, 131072, 262144]",Y270,"['', '', '', 'ПН-ВС 10:00-20:00']",Екатеринбург,"Екатеринбург, пр-т Ленина, д.103",60.646388,56.84355,593,True,,
"[1, 2, 4, 8, 16, 32, 64, 128, 256, 2048, 8192, 16384, 131072, 262144, 33554432]",Y322,"['ПН-ВС 09:00-19:45', '', '', '']",Екатеринбург,"Екатеринбург, ул. Победы, д.65",60.588321,56.902157,593,True,,
"[1, 2, 4, 8, 16, 32, 128, 256, 1024, 2048, 4096, 8192, 16384, 262144]",Y363,"['', '', 'ПН-ВС 10:00-21:00', '']",Екатеринбург,"Екатеринбург, ул. Репина, д.94, секц А19",60.538536,56.817178,593,True,,
"[1, 2, 4, 8, 16, 32, 128, 256, 2048, 8192, 16384, 262144]",Y365,"['', 'ПН-ВС 09:00-20:00', '', '']",Екатеринбург,"Екатеринбург, ул. Белореченская, д.28А",60.561847,56.816385,593,True,,
"[1, 2, 4, 8, 16, 32, 128, 256, 1024, 2048, 4096, 8192, 16384, 262144]",Y371,"['', '', '', 'ПН-ВС 10:00-21:00']",Екатеринбург,"Екатеринбург, ул. Амундсена, д.65",60.580936,56.79585,593,True,,
"[1, 2, 4, 8, 16, 32, 128, 256, 1024, 2048, 4096, 8192, 16384, 262144]",Y375,"['ПН-ВС 09:00-21:00', '', '', '']",Екатеринбург,"Екатеринбург, ул. Техническая, д.37",60.532365,56.865358,593,True,,
"[1, 2, 4, 8, 16, 32, 64, 128, 256, 1024, 2048, 4096, 8192, 16384, 262144, 33554432]",Y383,"['', '', '', 'ПН-ВС 09:00-21:00']",Екатеринбург,"Екатеринбург, ул. Агрономическая, д.30",60.605622,56.775166,593,True,,
"[1, 2, 4, 8, 16, 32, 128, 256, 1024, 2048, 4096, 8192, 16384, 262144]",Y408,"['', 'ПН-ВС 09:00-21:00', '', '']",Екатеринбург,"Екатеринбург, Черноморский пер., д.2",60.638914,56.894941,593,True,,
"[1, 2, 4, 8, 16, 32, 128, 256, 1024, 2048, 4096, 8192, 16384, 262144]",Y421,"['', 'ПН-ВС 10:00-21:00', '', '']",Екатеринбург,"Екатеринбург, ул. 40 лет Октября, д.75",60.598193,56.903873,593,True,,
"[1, 2, 4, 8, 16, 32, 128, 256, 1024, 2048, 4096, 8192, 16384, 65536, 262144]",E752,"['', '', 'ПН-ВС 10:15-20:45', '']",Нижний Новгород,"Нижний Новгород, ул. Бетанкура, д.1",43.956211,56.339397,617,True,,
"[1, 2, 4, 8, 16, 32, 128, 256, 1024, 2048, 4096, 8192, 16384, 262144]",F236,"['', 'ПН-ВС 10:00-21:00', '', '']",Нижний Новгород,"Нижний Новгород, Южное ш., д.2 Г",43.853857,56.222055,617,True,,
"[1, 2, 4, 8, 16, 32, 64, 128, 256, 1024, 2048, 4096, 8192, 16384, 262144, 33554432]",F285,"['', '', 'ПН-ВС 10:00-22:00', '']",Нижний Новгород,"Нижний Новгород, пл. Советская, д.5",44.042485,56.296299,617,True,,
"[1, 2, 4, 8, 16, 32, 128, 256, 1024, 2048, 4096, 8192, 16384]",H337,"['', 'ПН-ВС 10:00-21:00', '', '']",Нижний Новгород,"Нижний Новгород, Казанское ш., д.11",44.072992,56.2903,617,,,
"[1, 2, 4, 8, 16, 128, 256, 1024, 2048, 4096, 8192, 16384]",H575,"['', 'ПН-ВС 09:00-21:00', '', '']",Нижний Новгород,"Нижний Новгород, пл. Революции, д.9",43.947623,56.320338,617,,,
"[1, 2, 4, 8, 16, 128, 256, 1024, 2048, 4096, 8192, 16384]",H829,"['', 'ПН-ВС 10:00-22:00', '', '']",Нижний Новгород,"Нижний Новгород, ул. Родионова, д.187/187В пом.2",44.073908,56.307631,617,,,
"[1, 2, 4, 8, 16, 32, 64, 128, 256, 512, 1024, 2048, 4096, 8192, 16384, 131072, 262144, 524288, 33554432]",P091,"['', 'ПН-ВС 10:15-20:45', '', '']",Нижний Новгород,"Нижний Новгород, ул. Коминтерна, д.117",43.868329,56.350328,617,True,True,
"[1, 2, 4, 8, 16, 32, 128, 256, 1024, 2048, 4096, 8192, 16384, 65536, 131072, 262144]",P093,"['', '', 'ПН-ВС 09:00-21:00', '']",Нижний Новгород,"Нижний Новгород, ул. Дъяконова, д.11а",43.877006,56.261683,617,True,,
"[1, 2, 4, 8, 16, 32, 128, 256, 1024, 2048, 4096, 8192, 16384, 65536, 131072, 262144]",P094,"['', '', 'ПН-ВС 09:15-20:45', '']",Нижний Новгород,"Нижний Новгород, пр-т Ленина, д.33",43.92821,56.287332,617,True,,
"[1, 2, 4, 8, 16, 32, 64, 128, 256, 1024, 2048, 4096, 8192, 16384, 65536, 131072, 262144, 33554432]",P096,"['', '', 'ПН-ВС 09:15-21:00', '']",Нижний Новгород,"Нижний Новгород, ул. Советская, д.12",43.957971,56.325609,617,True,,
"[1, 2, 4, 8, 16, 32, 128, 256, 1024, 2048, 4096, 8192, 16384, 65536, 131072, 262144]",P105,"['', '', 'ПН-ВС 09:00-21:00', '']",Нижний Новгород,"Нижний Новгород, ул. Веденяпина, д.2 Б",43.863936,56.239503,617,True,,
"[1, 2, 4, 8, 16, 32, 128, 256, 1024, 2048, 4096, 8192, 16384, 65536, 131072, 262144]",P231,"['', '', 'ПН-ВС 09:30-20:30', '']",Нижний Новгород,"Нижний Новгород, Московское ш., д.122",43.891532,56.313613,617,True,,
"[1, 2, 4, 8, 16, 32, 128, 256, 1024, 2048, 4096, 8192, 16384, 65536, 131072, 262144]",P234,"['', 'ПН-ВС 09:00-21:00', '', '']",Нижний Новгород,"Нижний Новгород, пр-т Кораблестроителей, д.3 А",43.823889,56.365792,617,True,,
"[1, 2, 4, 8, 16, 32, 128, 256, 1024, 2048, 4096, 8192, 16384, 131072, 262144]",P237,"['', 'ПН-ВС 09:15-20:45', '', '']",Нижний Новгород,"Нижний Новгород, пр-т Октября, д.2 А",43.864565,56.243129,617,True,,
"[1, 2, 4, 8, 16, 32, 128, 256, 1024, 2048, 4096, 8192, 16384, 65536, 131072, 262144]",P481,"['', '', 'ПН-ВС 09:00-21:00', '']",Нижний Новгород,"Нижний Новгород, Гагарина пр-т, д.105а",43.951477,56.235105,617,True,,
"[1, 2, 4, 8, 16, 32, 128, 256, 1024, 2048, 4096, 8192, 16384, 131072, 262144]",P565,"['', '', 'ПН-ВС 09:30-20:30', '']",Нижний Новгород,"Нижний Новгород, пл. Комсомольская, д.2",43.946805,56.297103,617,True,,
"[1, 2, 4, 8, 16, 32, 64, 128, 256, 512, 2048, 8192, 16384, 131072, 262144, 524288, 33554432]",P567,"['', 'ПН-ВС 08:00-20:00', '', '']",Нижний Новгород,"Нижний Новгород, ул. Печерская Б., д.5/9",44.016146,56.326213,617,True,True,
"[1, 2, 4, 8, 16, 32, 64, 128, 256, 1024, 2048, 4096, 8192, 16384, 65536, 131072, 262144, 33554432]",P573,"['', '', 'ПН-ВС 09:00-21:00', '']",Нижний Новгород,"Нижний Новгород, пр-т Гагарина, д.29Б",43.981049,56.291913,617,True,,
"[1, 2, 4, 8, 16, 32, 128, 256, 1024, 2048, 4096, 8192, 16384, 131072, 262144]",P577,"['', 'ПН-ВС 09:10-20:50', '', '']",Нижний Новгород,"Нижний Новгород, ул. Коминтерна, д.11",43.884265,56.339961,617,True,,
"[1, 4, 8, 2048, 67108864]",T940_fr,"['', 'ПН-ВС 9:00-20:00', '', '']",Нижний Новгород,"Нижний Новгород, ул. Маковского, д.21",43.835253,56.233479,617,,,
"[1, 2, 4, 8, 16, 32, 64, 128, 256, 2048, 8192, 16384, 262144, 33554432]",E822,"['', 'ПН-ВС 08:00-20:00', '', '']",Астрахань,"Астрахань, ул. Победы, д.53",48.056194,46.353797,633,True,,
"[1, 4, 8, 1024, 2048, 67108864]",EE91_fr,"['', 'ПН-ВС 10:00-22:00', '', '']",Астрахань,"Астрахань, ул. Магистральная, д.29",48.080583,46.359709,633,,,
"[1, 2, 4, 8, 16, 32, 128, 256, 1024, 2048, 4096, 8192, 16384, 262144]",F084,"['', 'ПН-ВС 10:00-22:00', '', '']",Астрахань,"Астрахань, пл. Вокзальная, д.13",48.055358,46.359917,633,True,,
"[1, 2, 4, 8, 16, 32, 128, 256, 2048, 8192, 16384, 262144]",F452,"['', '', 'ПН-ВС 09:00-19:00', '']",Астрахань,"Астрахань, пл. Заводская, д.5 А",47.986026,46.338338,633,True,,
"[1, 2, 4, 8, 16, 32, 64, 128, 256, 2048, 8192, 16384, 262144, 33554432]",F965,"['', '', 'ПН-ВС 09:00-20:00', '']",Астрахань,"Астрахань, ул. Яблочкова, д.23 А",48.069381,46.364849,633,True,,
"[1, 2, 4, 8, 16, 32, 128, 256, 1024, 2048, 4096, 8192, 16384, 262144]",G281,"['', '', 'ПН-ВС 10:00-22:00', '']",Астрахань,"Астрахань, ул. Савушкина, д.5",48.050669,46.374295,633,True,,
"[1, 2, 4, 8, 16, 32, 128, 256, 2048, 8192, 16384]",H340,"['', '', 'ПН-ВС 09:00-19:00', '']",Астрахань,"Астрахань, ул. Анри Барбюса, д.17, лит. А",48.046276,46.36289,633,,,
"[1, 2, 4, 8, 16, 32, 128, 256, 2048, 8192, 16384]",H466,"['', 'ПН-ВС 09:00-19:00', '', '']",Астрахань,"Астрахань, ул. Софьи Перовской, д.78А",48.066928,46.346445,633,,,
"[1, 4, 8, 67108864]",R311_fr,"['', '', 'ПН-ПТ\xa08:00-18:00,СБ-ВС 9:00-18:00, Перерыв  13:00-14:00', '']",Астрахань,"Астрахань, ул. Магистральная, д.32 Г",47.984436,46.411172,633,,,
"[1, 4, 8, 67108864]",R731_fr,"['', '', 'ПН-ПТ 9:00-19:00, СБ-ВС 10:00-19:00', '']",Астрахань,"Астрахань, ул. Бабаевского, д.39р",48.09713,46.400726,633,,,
"[1, 4, 8, 1024, 2048, 67108864]",U012_fr,"['', 'ПН-ВС 10:00-22:00', '', '']",Астрахань,"Астрахань, ул. Боевая, д.25",48.023163,46.338288,633,,,
"[1, 2, 4, 8, 16, 32, 128, 256, 2048, 8192, 16384, 131072, 262144]",U054,"['', '', 'ПН-ВС 08:00-19:00', '']",Астрахань,"Астрахань, ул. Свердлова, д.100",48.053885,46.346258,633,True,,
"[1, 2, 4, 8, 16, 32, 128, 256, 2048, 8192, 16384, 131072, 262144]",U112,"['', '', 'ПН-ВС 09:00-20:00', '']",Астрахань,"Астрахань, ул. Боевая, д.52 А",48.021932,46.334132,633,True,,
"[1, 2, 4, 8, 16, 32, 64, 128, 256, 2048, 8192, 16384, 131072, 262144, 33554432]",U114,"['', 'ПН-ВС 09:00-19:00', '', '']",Астрахань,"Астрахань, ул. Челабяна/Ногина/Свердлова, д.19/7/98",48.053328,46.34655,633,True,,
"[1, 2, 4, 8, 16, 32, 64, 128, 256, 2048, 8192, 16384, 131072, 262144, 33554432]",U115,"['', '', 'ПН-ВС 09:00-20:00', '']",Астрахань,"Астрахань, ул. Свердлова/Кирова/Советской Милиции, д.21/6/14",48.037347,46.353125,633,True,,
"[1, 4, 8, 67108864]",U172_fr,"['ПН-ПТ 8:00-19:00, СБ-ВС 9:00-19:00', '', '', '']",Астрахань,"Астрахань, ул. Амирала Нахимова, д.127",47.992665,46.308091,633,,,
"[1, 2, 4, 8, 16, 32, 64, 128, 256, 512, 2048, 8192, 16384, 131072, 262144, 524288, 33554432]",U221,"['', '', '', 'ПН-ВС 08:00-20:00']",Астрахань,"Астрахань, ул. Кирова, д.40",48.037212,46.343172,633,True,True,
"[1, 2, 4, 8, 16, 32, 128, 256, 2048, 8192, 16384, 131072, 262144]",U284,"['', 'ПН-ВС 08:00-19:00', '', '']",Астрахань,"Астрахань, ул. Ногина, д.98/1",48.053418,46.346874,633,True,,
"[1, 2, 4, 8, 16, 32, 128, 256, 1024, 2048, 4096, 8192, 16384, 65536, 131072, 262144]",U368,"['', '', '', 'ПН-ВС 10:00-22:00']",Астрахань,"Астрахань, ул. Боевая, д.25",48.023163,46.338288,633,True,,
"[1, 2, 4, 8, 16, 32, 128, 256, 2048, 8192, 16384, 65536, 131072, 262144]",U392,"['ПН-ВС 09:00-20:00', '', '', '']",Астрахань,"Астрахань, ул. Минусинская, д.8",48.069749,46.358866,633,True,,
"[1, 2, 4, 8, 16, 32, 128, 256, 1024, 2048, 4096, 8192, 16384, 131072, 262144]",U412,"['', '', '', 'ПН-ВС 10:00-22:00']",Астрахань,"Астрахань, пл. Вокзальная, д.13",48.055358,46.359917,633,True,,
"[1, 4, 8, 2048, 67108864]",Y059_fr,"['', 'ПН-ВС 09:00-20:00', '', '']",Астрахань,"Астрахань, Воробьева пр-д., д.10",48.048279,46.330977,633,,,
"[1, 4, 8, 2048, 67108864]",Y334_fr,"['', '', '', 'ПН-ВС 9:00-19:00, ПЕРЕРЫВ 13:00-14:00']",Астрахань,"Астрахань, ул. Кубанская, д.66а",48.0219,46.1946,633,,,
"[1, 2, 4, 8, 16, 32, 64, 128, 256, 1024, 2048, 4096, 8192, 16384, 262144, 33554432]",F092,"['', 'ПН-ВС 10:00-22:00', '', '']",Сыктывкар,"Сыктывкар, ул. Коммунистическая, д.50",50.804212,61.661948,631,True,,
"[1, 2, 4, 8, 16, 32, 64, 128, 256, 1024, 2048, 4096, 8192, 16384, 262144, 33554432]",F246,"['', '', '', 'ПН-ВС 09:00-21:00']",Сыктывкар,"Сыктывкар, ул. Коммунистическая, д.38/1",50.817794,61.66463,631,True,,
"[1, 2, 4, 8, 16, 32, 64, 128, 256, 2048, 8192, 16384, 262144, 33554432]",G579,"['ПН-ПТ 10:00-19:00, СБ 10:00-18:00, ВС 11:00-17:00', '', '', '']",Сыктывкар,"Сыктывкар, ул. Коммунистическая, д.18",50.829823,61.667883,631,True,,
"[1, 2, 4, 8, 16, 32, 64, 128, 256, 1024, 2048, 4096, 8192, 16384, 65536, 131072, 262144, 33554432]",Z159,"['', '', 'ПН-ВС 10:00-20:45', '']",Сыктывкар,"Сыктывкар, Сысольское ш., д.11",50.831063,61.653119,631,True,,
"[1, 2, 4, 8, 16, 32, 64, 128, 256, 512, 1024, 2048, 4096, 8192, 16384, 65536, 131072, 262144, 524288, 33554432]",Z160,"['', 'ПН-ВС 09:00-21:00', '', '']",Сыктывкар,"Сыктывкар, ул. Коммунистическая, д.88/1",50.793486,61.658843,631,True,True,
"[1, 2, 4, 8, 16, 32, 64, 128, 256, 512, 1024, 2048, 4096, 8192, 16384, 131072, 262144, 524288, 33554432]",Z161,"['', '', '', 'ПН-ВС 09:00-21:00']",Сыктывкар,"Сыктывкар, ул. Советская, д.72",50.84805,61.665035,631,True,True,
"[1, 2, 4, 8, 16, 32, 64, 128, 256, 1024, 2048, 4096, 8192, 16384, 131072, 262144, 33554432]",Z598,"['', 'ПН-ВС 09:00-21:00', '', '']",Сыктывкар,"Сыктывкар, ул. Мира, д.20",50.750484,61.796597,631,True,,
"[1, 2, 4, 8, 16, 32, 64, 128, 256, 1024, 2048, 4096, 8192, 16384, 65536, 131072, 262144, 33554432]",Z599,"['', '', 'ПН-ВС 09:00-21:00', '']",Сыктывкар,"Сыктывкар, ул. Карла Маркса, д.182",50.82004,61.674091,631,True,,
"[1, 2, 4, 8, 16, 32, 64, 128, 256, 1024, 2048, 4096, 8192, 16384, 131072, 262144, 33554432]",Z655,"['', 'ПН-ВС 10:00-21:00', '', '']",Сыктывкар,"Сыктывкар, пр-т Октябрьский, д.141",50.801831,61.698597,631,True,,
"[1, 2, 4, 8, 16, 32, 64, 128, 256, 1024, 2048, 4096, 8192, 16384, 262144, 33554432]",Z694,"['', '', 'ПН-ВС 09:00-21:00', '']",Сыктывкар,"Сыктывкар, ул. Мира, д.27/11",50.752199,61.788603,631,True,,
"[1, 2, 4, 8, 16, 32, 64, 128, 256, 1024, 2048, 4096, 8192, 16384, 33554432]",G154,"['', 'ПН-ВС 10:00-21:00', '', '']",Ухта,"Ухта, ул. Заводская, д.3 стр. 1 ТЦ Ярмарка",53.705555,63.5641,631,,,
"[1, 2, 4, 8, 16, 32, 64, 128, 256, 2048, 8192, 16384, 33554432]",H469,"['', '', 'ПН-ВС 09:00-20:00', '']",Ухта,"Ухта, ул. Ленина, д.49",53.656974,63.568573,631,,,
"[1, 2, 4, 8, 16, 32, 64, 128, 256, 1024, 2048, 4096, 8192, 16384, 131072, 262144, 33554432]",Z168,"['', 'ПН-ВС 09:00-21:00', '', '']",Ухта,"Ухта, ул. Ленина, д.12",53.676889,63.563976,631,True,,
"[1, 2, 4, 8, 16, 32, 64, 128, 256, 1024, 2048, 4096, 8192, 16384, 131072, 262144, 33554432]",Z645,"['', '', 'ПН-ВС 10:00-21:00', '']",Ухта,"Ухта, ул. Строительная, д.2а, ТРЦ ""Ярмарка""",53.70657,63.566863,631,True,,
"[1, 4, 8, 67108864]",BE26_fr,"['', 'ПН-ВС 09:00-19:00', '', '']",Уфа,"Уфа, ул. Гвардейская, д.35/1",56.228904,54.7728,611,,,
"[1, 2, 4, 8, 16, 32, 128, 256, 1024, 2048, 4096, 8192, 16384, 65536, 262144]",E478,"['', '', '', 'ПН-ВС 10:00-21:00']",Уфа,"Уфа, ул. М.Губайдуллина, д.6",55.99555,54.72265,611,True,,
"[1, 2, 4, 8, 16, 32, 128, 256, 1024, 2048, 4096, 8192, 16384, 65536, 262144]",E720,"['', 'ПН-ВС 09:00-21:00', '', '']",Уфа,"Уфа, ул. Ленина, д.26, корп.лит. А",55.947696,54.725805,611,True,,
"[1, 2, 4, 8, 16, 32, 128, 256, 1024, 2048, 4096, 8192, 16384, 262144]",F178,"['', '', 'ПН-ВС 10:00-22:00', '']",Уфа,"Уфа, ул. Цюрупы, д.97",55.957802,54.736977,611,True,,
"[1, 2, 4, 8, 16, 32, 128, 256, 1024, 2048, 4096, 8192, 16384, 262144]",F180,"['', '', 'ПН-ВС 10:00-22:00', '']",Уфа,"Уфа, ул. Бакалинская, д.ТЦ Ультра Сити Молл",55.985312,54.717742,611,True,,
"[1, 2, 4, 8, 16, 32, 128, 256, 1024, 2048, 4096, 8192, 16384, 262144]",F388,"['', '', 'ПН-ВС 10:00-21:00', '']",Уфа,"Уфа, ул. Менделеева, д.205 А",56.026918,54.74141,611,True,,
"[1, 2, 4, 8, 16, 32, 128, 256, 1024, 2048, 4096, 8192, 16384, 262144]",F406,"['', 'ПН-ВС 10:00-22:00', '', '']",Уфа,"Уфа, пр-т Октября, д.34",55.999978,54.749725,611,True,,
"[1, 2, 4, 8, 16, 32, 128, 256, 1024, 2048, 4096, 8192, 16384, 262144]",F489,"['', '', 'ПН-ВС 10:00-22:00', '']",Уфа,"Уфа, ул. Энтузиастов, д.20",56.035865,54.757358,611,True,,
"[-2097152, 1, 2, 4, 8, 16, 32, 128, 256, 1024, 2048, 4096, 8192, 16384]",F490,"['', 'ПН-ВС 10:00-22:00', '', '']",Уфа,"Уфа, ул. Энтузиастов, д.20",56.035865,54.757358,611,,,
"[1, 2, 4, 8, 16, 32, 128, 256, 1024, 2048, 4096, 8192, 16384, 262144]",F921,"['', '', 'ПН-ВС 10:00-21:00', '']",Уфа,"Уфа, ул. Менделеева, д.137",55.993582,54.713475,611,True,,
"[1, 2, 4, 8, 16, 32, 128, 256, 512, 1024, 2048, 4096, 8192, 16384, 262144, 524288]",F928,"['', '', 'ПН-ВС 09:00-21:00', '']",Уфа,"Уфа, ул. Ленина, д.56",55.950346,54.731435,611,True,True,
"[1, 2, 4, 8, 16, 32, 128, 256, 1024, 2048, 4096, 8192, 16384, 262144]",G054,"['', '', 'ПН-ВС 09:00-21:00', '']",Уфа,"Уфа, ул. С.Перовской, д.17/1",55.992953,54.698119,611,True,,
"[1, 2, 4, 8, 16, 32, 128, 256, 1024, 2048, 4096, 8192, 16384, 262144]",G245,"['', '', 'ПН-ВС 09:00-21:00', '']",Уфа,"Уфа, ул. Ахметова, д.326",55.880466,54.790329,611,True,,
"[-2097152, 1, 2, 4, 8, 16, 32, 128, 256, 1024, 2048, 4096, 8192, 16384]",G643,"['', '', 'ПН-ВС 10:00-22:00', '']",Уфа,"Уфа, ул. Комсомольская, д.112",56.007604,54.752453,611,,,
"[1, 2, 4, 8, 16, 32, 128, 256, 1024, 2048, 4096, 8192, 16384, 262144]",G729,"['', 'ПН-ВС 10:00-22:00', '', '']",Уфа,"Уфа, ул. Рубежная, д.174",55.929056,54.674918,611,True,,
"[1, 2, 4, 8, 16, 32, 128, 256, 1024, 2048, 4096, 8192, 16384, 262144]",G745,"['', 'ПН-ВС 10:00-22:00', '', '']",Уфа,"Уфа, пр-т Октября, д.164",56.036737,54.789909,611,True,,
"[1, 2, 4, 8, 16, 32, 128, 256, 1024, 2048, 4096, 8192, 16384]",G776,"['', 'ПН-ВС 09:00-21:00', '', '']",Уфа,"Уфа, ул. М.Рыльского, д.17/1",56.073163,54.767955,611,,,
"[1, 2, 4, 8, 16, 32, 128, 256, 1024, 2048, 4096, 8192, 16384]",H664,"['', 'ПН-ВС 09:00-21:00', '', '']",Уфа,"Уфа, ул. Софьи Перовской, д.58",55.992468,54.697167,611,,,
"[1, 2, 4, 8, 16, 32, 128, 256, 1024, 2048, 4096, 8192, 16384]",H704,"['', 'ПН-ВС 10:00-22:00', '', '']",Уфа,"Уфа, пр-т Октября, д.4/1",55.98732,54.741197,611,,,
"[1, 2, 4, 8, 16, 128, 256, 1024, 2048, 4096, 8192, 16384]",H844,"['', 'ПН-ВС 10:00-22:00', '', '']",Уфа,"Уфа, ул. Ферина, д.29",0.0,0.0,611,,,
"[1, 2, 4, 8, 16, 32, 128, 256, 1024, 2048, 4096, 8192, 16384, 65536, 131072, 262144]",P018,"['', '', 'ПН-ВС 09:00-21:00', '']",Уфа,"Уфа, ул. Первомайская, д.26",56.075301,54.81721,611,True,,
"[1, 2, 4, 8, 16, 32, 128, 256, 1024, 2048, 4096, 8192, 16384, 65536, 131072, 262144]",P026,"['', 'ПН-ВС 09:00-21:00', '', '']",Уфа,"Уфа, ул. Первомайская, д.50",56.091094,54.81267,611,True,,
"[1, 2, 4, 8, 16, 32, 128, 256, 1024, 2048, 4096, 8192, 16384, 65536, 131072, 262144]",P030,"['', '', 'ПН-ВС 10:00-21:00', '']",Уфа,"Уфа, ул. М.Жукова, д.29",56.058736,54.771741,611,True,,
"[1, 2, 4, 8, 16, 32, 128, 256, 1024, 2048, 4096, 8192, 16384, 131072, 262144]",P164,"['', 'ПН-ВС 09:00-21:00', '', '']",Уфа,"Уфа, ул. Зорге, д.40",55.996277,54.757908,611,True,,
"[1, 2, 4, 8, 16, 32, 128, 256, 1024, 2048, 4096, 8192, 16384, 131072, 262144]",P432,"['', '', 'ПН-ВС 09:00-22:00', '']",Уфа,"Уфа, пр-т Октября, д.52",56.004469,54.754578,611,True,,
"[1, 2, 4, 8, 16, 32, 128, 256, 1024, 2048, 4096, 8192, 16384, 65536, 131072, 262144]",P433,"['ПН-ВС 09:00-22:00', '', '', '']",Уфа,"Уфа, пр-т Октября, д.53",56.003508,54.755716,611,True,,
"[1, 2, 4, 8, 16, 32, 128, 256, 1024, 2048, 4096, 8192, 16384, 131072, 262144]",P436,"['', '', '', 'ПН-ВС 09:00-21:00']",Уфа,"Уфа, ул. Баязита Бикбая, д.33 литер А (новый)",56.064602,54.765098,611,True,,
"[1, 2, 4, 8, 16, 32, 128, 256, 1024, 2048, 4096, 8192, 16384, 65536, 131072, 262144]",P443,"['', 'ПН-ВС 09:00-21:00', '', '']",Уфа,"Уфа, ул. Цюрупы, д.93",55.957128,54.734019,611,True,,
"[1, 2, 4, 8, 16, 32, 128, 256, 1024, 2048, 4096, 8192, 16384, 131072, 262144]",P536,"['', 'ПН-ВС 09:00-21:00', '', '']",Уфа,"Уфа, Первомайская, д.30",56.078535,54.816286,611,True,,
"[1, 2, 4, 8, 16, 32, 128, 256, 1024, 2048, 4096, 8192, 16384, 65536, 131072, 262144]",P597,"['', 'ПН-ВС 09:00-21:00', '', '']",Уфа,"Уфа, ул. Победы, д.39",56.082811,54.821914,611,True,,
"[1, 2, 4, 8, 16, 32, 128, 256, 1024, 2048, 4096, 8192, 16384, 65536, 131072, 262144]",P599,"['', '', 'ПН-ВС 09:15-21:00', '']",Уфа,"Уфа, ул. С.Перовской, д.52/2",55.991156,54.696397,611,True,,
"[1, 2, 4, 8, 16, 32, 128, 256, 1024, 2048, 4096, 8192, 16384, 131072, 262144]",P601,"['', 'ПН-ВС 09:00-21:00', '', '']",Уфа,"Уфа, ул. С. Кувыкина, д.31",55.998298,54.707848,611,True,,
"[1, 2, 4, 8, 16, 32, 128, 256, 1024, 2048, 4096, 8192, 16384, 131072, 262144]",P602,"['', 'ПН-ВС 09:00-21:00', '', '']",Уфа,"Уфа, ул. Ухтомского, д.16",55.829343,54.706043,611,True,,
"[1, 2, 4, 8, 16, 32, 128, 256, 1024, 2048, 4096, 8192, 16384, 131072, 262144]",P603,"['', 'ПН-ВС 09:00-21:00', '', '']",Уфа,"Уфа, ул. Ферина, д.возле д.9",56.132255,54.783985,611,True,,
"[1, 2, 4, 8, 16, 32, 64, 128, 256, 1024, 2048, 4096, 8192, 16384, 65536, 131072, 262144, 33554432]",P623,"['', '', 'ПН-ВС 09:00-21:00', '']",Уфа,"Уфа, пр-т Октября, д.87",56.028697,54.775464,611,True,,
"[1, 2, 4, 8, 16, 32, 128, 256, 1024, 2048, 4096, 8192, 16384, 131072, 262144]",P624,"['', '', 'ПН-ВС 09:00-21:00', '']",Уфа,"Уфа, пр-т Октября, д.88",56.018968,54.766075,611,True,,
"[1, 2, 4, 8, 16, 32, 128, 256, 2048, 8192, 16384, 65536, 131072, 262144]",P626,"['', 'ПН-ВС 10:00-20:00', '', '']",Уфа,"Уфа, ул. Коммунаров, д.61",56.123945,54.816421,611,True,,
"[1, 2, 4, 8, 16, 32, 128, 256, 1024, 2048, 4096, 8192, 16384, 131072, 262144]",P627,"['', '', 'ПН-ВС 09:00-21:00', '']",Уфа,"Уфа, ул. Левитана, д.8",55.831292,54.699867,611,True,,
"[1, 2, 4, 8, 16, 32, 128, 256, 1024, 2048, 4096, 8192, 16384, 131072, 262144]",P628,"['', 'ПН-ВС 09:00-21:00', '', '']",Уфа,"Уфа, ул. Первомайская, д.36",56.082254,54.815181,611,True,,
"[1, 2, 4, 8, 16, 32, 128, 256, 1024, 2048, 4096, 8192, 16384, 65536, 131072, 262144]",P629,"['', '', '', 'ПН-ВС 09:00-21:00']",Уфа,"Уфа, ул. Первомайская, д.98",56.111324,54.806838,611,True,,
"[1, 2, 4, 8, 16, 32, 128, 256, 1024, 2048, 4096, 8192, 16384, 65536, 131072, 262144]",P630,"['', 'ПН-ВС 09:00-21:00', '', '']",Уфа,"Уфа, ул. Свободы, д.27",56.107497,54.819399,611,True,,
"[1, 2, 4, 8, 16, 32, 128, 256, 1024, 2048, 4096, 8192, 16384, 131072, 262144]",P633,"['', '', '', 'ПН-ВС 09:00-21:00']",Уфа,"Уфа, ул. Харьковская, д.103а",55.978975,54.733468,611,True,,
"[1, 2, 4, 8, 16, 32, 128, 256, 1024, 2048, 4096, 8192, 16384, 65536, 131072, 262144]",P669,"['', 'ПН-ВС 09:00-22:00', '', '']",Уфа,"Уфа, пр-т Октября, д.возле д. 21",55.991129,54.746457,611,True,,
"[1, 2, 4, 8, 16, 32, 128, 256, 1024, 2048, 4096, 8192, 16384, 131072, 262144]",P670,"['', '', '', 'ПН-ВС 09:00-21:00']",Уфа,"Уфа, ул. Ухтомского, д.при входе В ПкиО. Литер Б",55.829719,54.703536,611,True,,
"[1, 2, 4, 8, 16, 32, 128, 256, 1024, 2048, 4096, 8192, 16384, 65536, 131072, 262144]",P697,"['', 'ПН-ВС 10:00-22:00', '', '']",Уфа,"Уфа, пр-т Октября, д.4/1",55.98732,54.741197,611,True,,
"[1, 2, 4, 8, 16, 32, 128, 256, 512, 1024, 2048, 4096, 8192, 16384, 262144, 524288]",P740,"['', '', '', 'ПН-ВС 10:00-22:00']",Уфа,"Уфа, ул. Комсомольская, д.112",56.007604,54.752453,611,True,True,
"[1, 2, 4, 8, 16, 32, 128, 256, 1024, 2048, 4096, 8192, 16384, 131072, 262144]",P742,"['', 'ПН-ВС 09:00-21:00', '', '']",Уфа,"Уфа, ул. Транспортная, д.рядом с д.46/1",56.118879,54.780667,611,True,,
"[1, 2, 4, 8, 16, 32, 128, 256, 1024, 2048, 4096, 8192, 16384, 65536, 131072, 262144]",P746,"['', 'ПН-ВС 09:00-21:00', '', '']",Уфа,"Уфа, ул. Галле ул/ Р.Зорге",55.989144,54.74814,611,True,,
"[1, 2, 4, 8, 16, 32, 128, 256, 1024, 2048, 4096, 8192, 16384, 262144]",P782,"['', '', 'ПН-ВС 10:00-22:00', '']",Уфа,"Уфа, ул. Рубежная, д.174",55.929056,54.674918,611,True,,
"[1, 2, 4, 8, 16, 32, 64, 128, 256, 1024, 2048, 4096, 8192, 16384, 131072, 262144, 33554432]",H128,"['', '', 'ПН-ВС 09:00-21:00', '']",Мценск,"Мценск, ул. Гагарина, д.75",36.575068,53.279257,626,True,,
"[1, 2, 4, 8, 16, 32, 64, 128, 256, 2048, 8192, 16384, 131072, 262144, 33554432]",H136,"['', '', 'ПН-ВС 09:00-19:00', '']",Мценск,"Мценск, ул. Ленина, д.34",36.574808,53.281454,626,True,,
"[1, 4, 8, 2048, 67108864]",HE47_fr,"['', 'ПН-ВС 9:00-20:00', '', '']",Мценск,"Мценск, ул. Машиностроителей, д.8",36.599664,53.292295,626,,,
"[1, 2, 4, 8, 16, 32, 64, 128, 256, 1024, 2048, 4096, 8192, 16384, 262144, 33554432]",D732,"['', 'ПН-ВС 09:00-21:00', '', '']",Инта,"Инта, ул. Горького, д.1",60.130261,66.039095,631,True,,
"[1, 2, 4, 8, 16, 32, 64, 128, 256, 1024, 2048, 4096, 8192, 16384, 131072, 262144, 33554432]",Z165,"['', 'ПН-ВС 09:00-21:00', '', '']",Инта,"Инта, ул. Дзержинского, д.27",60.111082,66.037127,631,True,,
"[1, 2, 4, 8, 16, 32, 64, 128, 256, 1024, 2048, 4096, 8192, 16384, 33554432]",G873,"['', '', 'ПН-ВС 10:00-21:00', '']",Воркута,"Воркута, Деповской пер., д.2",64.061091,67.49741,631,,,
"[1, 2, 4, 8, 16, 32, 64, 128, 256, 2048, 8192, 16384, 33554432]",H356,"['', 'ПН-ВС 09:00-20:00', '', '']",Воркута,"Воркута, ул. Ленина, д.31",64.053787,67.495108,631,,,
"[1, 2, 4, 8, 16, 32, 64, 128, 256, 2048, 8192, 16384, 262144, 33554432]",D729,"['', '', 'ПН-СБ 10:00-20:00, ВС 10:00-18:00', '']",Усинск,"Усинск, ул. Парковая, д.8б",57.544873,65.990551,631,True,,
"[1, 2, 4, 8, 16, 32, 64, 128, 256, 1024, 2048, 4096, 8192, 16384, 262144, 33554432]",D730,"['', '', 'ПН-ВС 09:00-21:00', '']",Усинск,"Усинск, ул. Молодежная, д.12",57.565804,65.98953,631,True,,
"[1, 2, 4, 8, 16, 32, 64, 128, 256, 1024, 2048, 4096, 8192, 16384, 131072, 262144, 33554432]",Z167,"['', 'ПН-ВС 09:00-21:00', '', '']",Усинск,"Усинск, ул. 60 лет Октября, д.1/11",57.551332,65.987905,631,True,,
"[1, 2, 4, 8, 16, 32, 64, 128, 256, 2048, 8192, 16384, 131072, 262144, 33554432]",H031,"['', '', 'ПН-ВС 09:00-20:00', '']",Алексеевка,"Алексеевка, ул. Гагарина, д.5а",38.689801,50.626812,587,True,,
"[1, 4, 8, 67108864]",Q864_fr,"['', '', 'ПН-СБ 8:00-20:00; ВС 8:00-19:00', '']",Алексеевка,"Алексеевка, ул. К.Маркса, д.9а",38.691643,50.629269,587,,,
"[1, 2, 4, 8, 16, 32, 64, 128, 256, 1024, 2048, 4096, 8192, 16384, 262144, 33554432]",D821,"['', 'ПН-ВС 09:00-21:00', '', '']",Нефтекамск,"Нефтекамск, ул. Социалистическая, д.89А/3",54.231545,56.099049,611,True,,
"[1, 4, 8, 1024, 2048, 67108864]",EE33_fr,"['', '', 'ПН-ВС 10:00-21:00', '']",Нефтекамск,"Нефтекамск, пр-т Юбилейный, д.18",54.236917,56.088157,611,,,
"[1, 2, 4, 8, 16, 32, 64, 128, 256, 1024, 2048, 4096, 8192, 16384, 131072, 262144, 33554432]",P420,"['', 'ПН-ВС 09:00-21:00', '', '']",Нефтекамск,"Нефтекамск, Комсомольский пр-т, д.13",54.252566,56.093084,611,True,,
"[1, 2, 4, 8, 16, 32, 64, 128, 256, 1024, 2048, 4096, 8192, 16384, 65536, 131072, 262144, 33554432]",P421,"['', '', 'ПН-ВС 09:00-21:00', '']",Нефтекамск,"Нефтекамск, ул. Ленина, д.34",54.246358,56.090171,611,True,,
"[1, 2, 4, 8, 16, 32, 64, 128, 256, 1024, 2048, 4096, 8192, 16384, 131072, 262144, 33554432]",P422,"['', 'ПН-ВС 09:00-21:00', '', '']",Нефтекамск,"Нефтекамск, ул. Парковая, д.2А",54.2587,56.083333,611,True,,
"[1, 2, 4, 8, 16, 32, 64, 128, 256, 1024, 2048, 4096, 8192, 16384, 131072, 262144, 33554432]",P613,"['', '', 'ПН-ВС 09:00-21:00', '']",Нефтекамск,"Нефтекамск, пр-т Юбилейный, д.6",54.245002,56.096006,611,True,,
"[1, 2, 4, 8, 16, 32, 64, 128, 256, 1024, 2048, 4096, 8192, 16384, 131072, 262144, 33554432]",P674,"['', '', 'ПН-ВС 09:00-21:00', '']",Нефтекамск,"Нефтекамск, пр-т Комсомольский, д.40",54.247571,56.08668,611,True,,
"[1, 2, 4, 8, 16, 32, 64, 128, 256, 2048, 8192, 16384, 131072, 262144, 33554432]",P727,"['', 'ПН-ВС 09:15-19:45', '', '']",Нефтекамск,"Нефтекамск, ул. Парковая, д.2",54.254309,56.081306,611,True,,
"[1, 2, 4, 8, 16, 32, 64, 128, 256, 2048, 8192, 16384, 131072, 262144, 33554432]",D091,"['', 'ПН-ПТ 09:00-18:00, СБ-ВС 10:00-18:00', '', '']",Тында,"Тында, ул. Профсоюзная, д.10, корп.А",124.737716,55.148549,634,True,,
"[1, 2, 4, 8, 16, 32, 64, 128, 256, 2048, 8192, 16384, 262144, 33554432]",G158,"['', 'ПН-ВС 10:00-19:00', '', '']",Тында,"Тында, ул. Московских строителей, д.р-н городского рынка",124.743456,55.153982,634,True,,
"[1, 4, 8, 2048, 67108864]",P140_fr,"['', 'ПН-ПТ 09:00-20:00, СБ-ВС 09:00-20:00', '', '']",Тында,"Тында, ул. Красная Пресня, д.49",124.736577,55.149477,634,,,
"[1, 2, 4, 8, 16, 32, 64, 128, 256, 1024, 2048, 4096, 8192, 16384, 262144, 33554432]",E472,"['', 'ПН-ВС 09:00-21:00', '', '']",Ангарск,"Ангарск, ул. 74 квартал, д.6",103.889245,52.541198,635,True,,
"[1, 2, 4, 8, 16, 32, 64, 128, 256, 2048, 8192, 16384, 262144, 33554432]",E829,"['', '', 'ПН-ВС 10:00-19:00', '']",Ангарск,"Ангарск, 6-й микрорайон, д.19",103.87552,52.518583,635,True,,
"[1, 2, 4, 8, 16, 32, 64, 128, 256, 1024, 2048, 4096, 8192, 16384, 262144, 33554432]",F076,"['', '', 'ПН-ВС 10:00-21:00', '']",Ангарск,"Ангарск, 192-й квартал, д.12",103.842004,52.504004,635,True,,
"[1, 2, 4, 8, 16, 32, 64, 128, 256, 1024, 2048, 4096, 8192, 16384, 131072, 262144, 33554432]",S083,"['', 'ПН-ВС 09:00-21:00', '', '']",Ангарск,"Ангарск, Квартал 188, д.6",103.839102,52.506816,635,True,,
"[1, 2, 4, 8, 16, 32, 64, 128, 256, 2048, 8192, 16384, 131072, 262144, 33554432]",S216,"['', '', 'ПН-ПТ 10:00-18:45, СБ-ВС 11:00-17:45', '']",Ангарск,"Ангарск, ул. Карла Маркса, д.28",103.889192,52.544325,635,True,,
"[1, 2, 4, 8, 16, 32, 64, 128, 256, 2048, 8192, 16384, 131072, 262144, 33554432]",S294,"['', 'ПН-ВС 10:00-20:00', '', '']",Ангарск,"Ангарск, 13-й микрорайон, д.33 ТЦ Мега",103.864201,52.519881,635,True,,
"[1, 4, 8, 2048, 67108864]",U618_fr,"['', 'ПН-ВС 10:00-18:00', '', '']",Ангарск,"Ангарск, 12А микрорайон, д.2в, пав. 6",103.862054,52.5108,635,,,
"[1, 4, 8, 2048, 67108864]",AE36_fr,"['', '', 'ПН-ВС 8:00-18:00', '']",Ставрополь,"Ставрополь, ул. Тухачевского, д.28/1",41.901054,45.016129,601,,,
"[1, 2, 4, 8, 16, 32, 64, 128, 256, 512, 2048, 8192, 16384, 65536, 262144, 524288, 33554432]",E376,"['', 'ПН-ВС 09:00-19:00', '', '']",Ставрополь,"Ставрополь, пр-т Карла Маркса, д.53",41.98537,45.050169,601,True,True,
"[1, 2, 4, 8, 16, 32, 64, 128, 256, 1024, 2048, 4096, 8192, 16384, 262144, 33554432]",E782,"['', '', 'ПН-ВС 09:00-21:00', '']",Ставрополь,"Ставрополь, ул. К.Маркса, д.98",41.974195,45.046189,601,True,,
"[1, 2, 4, 8, 16, 32, 64, 128, 256, 2048, 8192, 16384, 262144, 33554432]",E967,"['', 'ПН-ВС 08:00-20:00', '', '']",Ставрополь,"Ставрополь, ул. Мира, д.280/7а",41.971284,45.037273,601,True,,
"[1, 2, 4, 8, 16, 32, 64, 128, 256, 1024, 2048, 4096, 8192, 16384, 262144, 33554432]",F253,"['', '', 'ПН-ВС 09:00-21:00', '']",Ставрополь,"Ставрополь, ул. Артема, д.49",41.965176,45.033827,601,True,,
"[1, 2, 4, 8, 16, 32, 64, 128, 256, 2048, 8192, 16384, 33554432]",G762,"['', 'ПН-ВС 09:00-20:00', '', '']",Ставрополь,"Ставрополь, ул. Тухачевского, д.16 Б",41.917727,45.01309,601,,,
"[1, 4, 8, 2048, 67108864]",S960_fr,"['', 'ПН-ВС 10:00-20:00', '', '']",Ставрополь,"Ставрополь, ул. Ленина, д.468",41.9207,45.0364,601,,,
"[1, 2, 4, 8, 16, 32, 64, 128, 256, 2048, 8192, 16384, 131072, 262144, 33554432]",U004,"['', 'ПН-ВС 09:00-20:00', '', '']",Ставрополь,"Ставрополь, ул. 50 лет ВЛКСМ, д.64",41.920071,44.999605,601,True,,
"[1, 4, 8, 1024, 2048, 67108864]",U022_fr,"['', 'ПН-ВС 10:00-22:00', '', '']",Ставрополь,"Ставрополь, ул. Доваторцев, д.75 А",41.923144,44.99747,601,,,
"[1, 2, 4, 8, 16, 32, 64, 128, 256, 2048, 8192, 16384, 131072, 262144, 33554432]",U033,"['', '', 'ПН-ВС 09:00-20:00', '']",Ставрополь,"Ставрополь, ул. Тухачевского, д.16",41.917727,45.01309,601,True,,
"[1, 2, 4, 8, 16, 32, 64, 128, 256, 2048, 8192, 16384, 131072, 262144, 33554432]",U068,"['', '', 'ПН-ВС 09:00-20:00', '']",Ставрополь,"Ставрополь, пр-т Юности, д.27 Г",41.923084,45.06207,601,True,,
"[1, 2, 4, 8, 16, 32, 64, 128, 256, 512, 2048, 8192, 16384, 131072, 262144, 524288, 33554432]",U249,"['', 'ПН-ВС 08:00-20:00', '', '']",Ставрополь,"Ставрополь, ул. Ломоносова, д.8",41.9571,45.04191,601,True,True,
"[1, 2, 4, 8, 16, 32, 64, 128, 256, 2048, 8192, 16384, 65536, 131072, 262144, 33554432]",U374,"['', '', '', 'ПН-ВС 09:00-20:00']",Ставрополь,"Ставрополь, ул. Ленина, д.308",41.963694,45.038706,601,True,,
"[1, 2, 4, 8, 16, 32, 64, 128, 256, 2048, 8192, 16384, 131072, 262144, 33554432]",U375,"['', 'ПН-ВС 09:00-20:00', '', '']",Ставрополь,"Ставрополь, ул. Морозова 4/3 Артема",41.965041,45.041177,601,True,,
"[1, 2, 4, 8, 16, 32, 64, 128, 2048, 65536, 131072, 262144, 33554432]",U379,"['', '', '', 'ПН-ВС 09:00-20:00']",Ставрополь,"Ставрополь, ул. 50 лет ВЛКСМ, д.16",41.924509,45.013893,601,True,,
"[1, 2, 4, 8, 16, 32, 64, 128, 256, 2048, 8192, 16384, 131072, 262144, 33554432]",U415,"['', 'ПН-ВС 09:00-20:00', '', '']",Ставрополь,"Ставрополь, ул. Доваторцев, д.39 В",41.93086,45.015499,601,True,,
"[1, 4, 8, 2048, 67108864]",Y039_fr,"['', 'ПН-ВС 09:00-20:00', '', '']",Ставрополь,"Ставрополь, пр-т Юности, д.22",41.930779,45.06009,601,,,
"[1, 2, 4, 8, 16, 32, 64, 128, 256, 2048, 8192, 16384, 33554432]",G819,"['', 'ПН-ВС 09:00-18:00', '', '']",Элиста,"Элиста, ул. М. Горького, д.11, корп.1",44.263965,46.308714,649,,,
"[1, 2, 4, 8, 16, 32, 64, 128, 256, 2048, 8192, 16384, 131072, 262144, 33554432]",U256,"['', '', 'ПН-ВС 09:00-18:00', '']",Элиста,"Элиста, ул. Сусеева, д.7",44.269202,46.305526,649,True,,
"[1, 2, 4, 8, 16, 32, 64, 128, 256, 2048, 8192, 16384, 131072, 262144, 33554432]",U289,"['', '', 'ПН-ВС 09:00-19:00', '']",Элиста,"Элиста, Ленина, д.247",44.267681,46.308682,649,True,,
"[1, 2, 4, 8, 16, 32, 64, 128, 256, 2048, 8192, 16384, 262144, 33554432]",E952,"['', '', 'ПН-ВС 09:00-20:00', '']",Горно-Алтайск,"Горно-Алтайск, пр-т Коммунистический, д.168/2",85.911595,51.963348,653,True,,
"[1, 2, 4, 8, 16, 32, 64, 128, 256, 2048, 8192, 16384, 262144, 33554432]",E953,"['', '', 'ПН-ВС 09:00-20:00', '']",Горно-Алтайск,"Горно-Алтайск, пр-т Коммунистический, д.1 лит. А III",85.968395,51.958121,653,True,,
"[1, 2, 4, 8, 16, 32, 64, 128, 256, 2048, 8192, 16384, 33554432]",G830,"['', '', 'ПН-ВС 09:00-18:00', '']",Горно-Алтайск,"Горно-Алтайск, пр-т Коммунистический, д.80а",85.933684,51.954718,653,,,
"[1, 2, 4, 8, 16, 32, 64, 128, 256, 2048, 8192, 16384, 33554432]",H548,"['', 'ПН-ВС 09:00-20:00', '', '']",Горно-Алтайск,"Горно-Алтайск, пр-т Коммунистический, д.66",85.940664,51.957177,653,,,
"[1, 2, 4, 8, 16, 32, 64, 128, 256, 512, 2048, 8192, 16384, 131072, 262144, 524288, 33554432]",S220,"['', 'ПН-ВС 09:00-18:00', '', '']",Горно-Алтайск,"Горно-Алтайск, Типографский пер., д.17",85.964892,51.956178,653,True,True,
"[1, 2, 4, 8, 16, 32, 64, 128, 256, 1024, 2048, 4096, 8192, 16384, 65536, 262144, 33554432]",E930,"['', 'ПН-ВС 10:00-21:00', '', '']",Стерлитамак,"Стерлитамак, ул. Артема, д.96",55.901585,53.622585,611,True,,
"[1, 2, 4, 8, 16, 32, 64, 128, 256, 2048, 8192, 16384, 262144, 33554432]",F428,"['', 'ПН-ВС 10:00-19:00', '', '']",Стерлитамак,"Стерлитамак, ул. Мира, д.2 Б",55.955628,53.613313,611,True,,
"[1, 2, 4, 8, 16, 32, 64, 128, 256, 1024, 2048, 4096, 8192, 16384, 262144, 33554432]",F613,"['', 'ПН-ВС 10:00-21:00', '', '']",Стерлитамак,"Стерлитамак, ул. Артема ул\Октября пр-кт\Строителей",55.900345,53.630813,611,True,,
"[1, 2, 4, 8, 16, 32, 64, 128, 256, 2048, 8192, 16384, 262144, 33554432]",G122,"['', '', 'ПН-ВС 10:00-19:00', '']",Стерлитамак,"Стерлитамак, ул. Мира, д.2 Д",55.954819,53.612538,611,True,,
"[-2097152, 1, 2, 4, 8, 16, 32, 128, 256, 1024, 2048, 4096, 8192, 16384]",G418,"['', 'ПН-ВС 10:00-21:00', '', '']",Стерлитамак,"Стерлитамак, пр-т Октября, д.36",55.900372,53.631246,611,,,
"[1, 2, 4, 8, 16, 32, 64, 128, 256, 1024, 2048, 4096, 8192, 16384, 33554432]",H476,"['', 'ПН-ВС 09:00-21:00', '', '']",Стерлитамак,"Стерлитамак, ул. Гоголя, д.133",55.941857,53.599844,611,,,
"[1, 2, 4, 8, 16, 32, 64, 128, 256, 1024, 2048, 4096, 8192, 16384, 33554432]",H887,"['', '', 'ПН-ВС 10:00-22:00', '']",Стерлитамак,"Стерлитамак, ул. Худайбердина, д.120",55.941255,53.628998,611,,,
"[1, 2, 4, 8, 16, 32, 64, 128, 256, 1024, 2048, 4096, 8192, 16384, 65536, 131072, 262144, 33554432]",P069,"['', '', 'ПН-ВС 10:00-22:00', '']",Стерлитамак,"Стерлитамак, ул. Худайбердина, д.120",55.941255,53.628998,611,True,,
"[1, 2, 4, 8, 16, 32, 64, 128, 256, 512, 1024, 2048, 4096, 8192, 16384, 131072, 262144, 524288, 33554432]",P529,"['', 'ПН-ВС 09:00-21:00', '', '']",Стерлитамак,"Стерлитамак, Октября пр-т, д.39",55.91983,53.629158,611,True,True,
"[1, 2, 4, 8, 16, 32, 64, 128, 256, 1024, 2048, 4096, 8192, 16384, 131072, 262144, 33554432]",P648,"['', '', 'ПН-ВС 09:00-21:00', '']",Стерлитамак,"Стерлитамак, ул. Коммунистическая, д.43",55.909131,53.628341,611,True,,
"[1, 2, 4, 8, 16, 32, 64, 128, 256, 1024, 2048, 4096, 8192, 16384, 65536, 131072, 262144, 33554432]",P703,"['', 'ПН-ВС 09:00-21:00', '', '']",Стерлитамак,"Стерлитамак, ул. Худайбердина, д.ост.Толстого",55.935164,53.628854,611,True,,
"[1, 2, 4, 8, 16, 32, 64, 128, 256, 1024, 2048, 4096, 8192, 16384, 131072, 262144, 33554432]",P781,"['', 'ПН-ВС 09:00-21:00', '', '']",Стерлитамак,"Стерлитамак, ул. Худайбердина, д.70",55.950373,53.623963,611,True,,
"[1, 2, 4, 8, 16, 32, 64, 128, 256, 1024, 4096, 8192, 16384, 262144, 33554432]",E460,"['', 'ПН-ВС 09:00-20:30', '', '']",Тольятти,"Тольятти, ул. Лизы Чайкиной, д.52",49.477454,53.480538,630,True,,
"[1, 2, 4, 8, 16, 32, 64, 128, 256, 1024, 2048, 4096, 8192, 16384, 262144, 33554432]",E638,"['', 'ПН-ВС 09:00-21:00', '', '']",Тольятти,"Тольятти, ул. Дзержинского, д.возле д. 38",49.324615,53.534528,630,True,,
"[1, 2, 4, 8, 16, 32, 64, 128, 256, 1024, 2048, 4096, 8192, 16384, 262144, 33554432]",E921,"['', 'ПН-ВС 09:00-21:00', '', '']",Тольятти,"Тольятти, ул. 70 Лет Октября, д.35 Б",49.338269,53.541544,630,True,,
"[1, 2, 4, 8, 16, 32, 64, 128, 256, 2048, 8192, 16384, 262144, 33554432]",E981,"['', '', 'ПН-ВС 09:00-20:00', '']",Тольятти,"Тольятти, ул. Гидротехническая, д.35 А",49.532476,53.471856,630,True,,
"[1, 2, 4, 8, 16, 32, 64, 128, 256, 1024, 2048, 4096, 8192, 16384, 262144, 33554432]",F606,"['', 'ПН-ВС 09:00-21:00', '', '']",Тольятти,"Тольятти, ул. Тополиная, д.24",49.344432,53.540565,630,True,,
"[1, 2, 4, 8, 16, 32, 64, 128, 256, 1024, 2048, 4096, 8192, 16384, 33554432]",H326,"['', '', 'ПН-ВС 09:00-21:00', '']",Тольятти,"Тольятти, ул. Карла Маркса, д.65",49.415372,53.508634,630,,,
"[1, 2, 4, 8, 16, 32, 64, 128, 256, 1024, 2048, 4096, 8192, 16384, 65536, 131072, 262144, 33554432]",P009,"['', 'ПН-ВС 10:00-21:00', '', '']",Тольятти,"Тольятти, ул. Льва Яшина, д.14",49.360017,53.544,630,True,,
"[1, 2, 4, 8, 16, 32, 64, 128, 256, 1024, 4096, 8192, 16384, 131072, 262144, 33554432]",P070,"['', '', 'ПН-ВС 09:00-21:00', '']",Тольятти,"Тольятти, ул. Революционная, д.28",49.274174,53.526639,630,True,,
"[1, 2, 4, 8, 16, 32, 64, 128, 256, 1024, 2048, 4096, 8192, 16384, 65536, 131072, 262144, 33554432]",P394,"['', 'ПН-ВС 10:00-22:00', '', '']",Тольятти,"Тольятти, Автозаводское ш., д.6",49.390542,53.541774,630,True,,
"[1, 2, 4, 8, 16, 32, 64, 128, 256, 1024, 2048, 4096, 8192, 16384, 131072, 262144, 33554432]",P396,"['', '', 'ПН-ВС 09:00-21:00', '']",Тольятти,"Тольятти, пр-т Степана Разина, д.ост. Детский мир",49.291972,53.508275,630,True,,
"[1, 2, 4, 8, 16, 32, 64, 128, 256, 1024, 2048, 4096, 8192, 16384, 131072, 262144, 33554432]",P400,"['', 'ПН-ВС 09:00-21:00', '', '']",Тольятти,"Тольятти, ул. Ленина, д.71",49.413018,53.526495,630,True,,
"[1, 2, 4, 8, 16, 32, 64, 128, 256, 1024, 2048, 4096, 8192, 16384, 65536, 131072, 262144, 33554432]",P403,"['', '', '', 'ПН-ВС 10:00-21:45']",Тольятти,"Тольятти, ул. Революционная, д.52 А",49.271902,53.517908,630,True,,
"[1, 2, 4, 8, 16, 32, 64, 128, 256, 1024, 2048, 4096, 8192, 16384, 65536, 131072, 262144, 33554432]",P485,"['', 'ПН-ВС 10:00-20:45', '', '']",Тольятти,"Тольятти, ул. Баныкина, д.74",49.457098,53.510803,630,True,,
"[1, 2, 4, 8, 16, 32, 64, 128, 256, 1024, 2048, 4096, 8192, 16384, 131072, 262144, 33554432]",P531,"['', '', '', 'ПН-ВС 09:00-21:00']",Тольятти,"Тольятти, ул. Мира, д.71",49.416656,53.508082,630,True,,
"[1, 2, 4, 8, 16, 32, 64, 128, 256, 512, 1024, 2048, 4096, 8192, 16384, 131072, 262144, 524288, 33554432]",P532,"['', 'ПН-ВС 09:00-21:00', '', '']",Тольятти,"Тольятти, ул. Революционная, д.60",49.271587,53.513336,630,True,True,
"[1, 2, 4, 8, 16, 32, 64, 128, 256, 1024, 2048, 4096, 8192, 16384, 131072, 262144, 33554432]",P722,"['', '', 'ПН-ВС 10:00-21:00', '']",Тольятти,"Тольятти, ул. Дзержинского, д.21",49.319719,53.533645,630,True,,
"[1, 2, 4, 8, 16, 32, 64, 128, 256, 1024, 2048, 4096, 8192, 16384, 65536, 131072, 262144, 33554432]",P743,"['', 'ПН-ВС 10:00-20:45', '', '']",Тольятти,"Тольятти, ул. Карла Маркса, д.57",49.414554,53.510133,630,True,,
"[1, 4, 8, 67108864]",S630_fr,"['', 'ПН-ВС 10:00-20:00', '', '']",Тольятти,"Тольятти, ул. Победы, д.29",49.425514,53.519064,630,,,
"[1, 4, 8, 2048, 67108864]",CE84_fr,"['', '', 'ПН-ВС 10:00-19:00', '']",Октябрьский,"Октябрьский, ул. Островского, д.6А",53.467905,54.484984,611,,,
"[1, 2, 4, 8, 16, 32, 64, 128, 256, 1024, 2048, 4096, 8192, 16384, 262144, 33554432]",F698,"['', '', 'ПН-ВС 10:00-21:00', '']",Октябрьский,"Октябрьский, пр-т Ленина, д.59/1",53.50523,54.483724,611,True,,
"[1, 2, 4, 8, 16, 32, 64, 128, 256, 1024, 2048, 4096, 8192, 16384, 262144, 33554432]",G368,"['', '', 'ПН-ВС 09:00-21:00', '']",Октябрьский,"Октябрьский, пр-т Ленина, д.5",53.469055,54.482385,611,True,,
"[1, 2, 4, 8, 16, 32, 64, 128, 256, 1024, 2048, 4096, 8192, 16384, 131072, 262144, 33554432]",P059,"['', 'ПН-ВС 09:00-21:00', '', '']",Октябрьский,"Октябрьский, ул. Губкина, д.27",53.474265,54.48261,611,True,,
"[1, 2, 4, 8, 16, 32, 64, 128, 256, 1024, 2048, 4096, 8192, 16384, 131072, 262144, 33554432]",P424,"['', '', 'ПН-ВС 09:00-21:00', '']",Октябрьский,"Октябрьский, ул. Садовое Кольцо, д.51",53.468678,54.488619,611,True,,
"[1, 2, 4, 8, 16, 32, 64, 128, 256, 2048, 8192, 16384, 65536, 262144, 33554432]",E624,"['', 'ПН-ВС 09:00-20:00', '', '']",Стрежевой,"Стрежевой, ул. Коммунальная, д.53",77.581104,60.72834,654,True,,
"[-2097152, 1, 2, 4, 8, 16, 32, 128, 256, 2048, 8192, 16384]",F368,"['', '', 'ПН-ВС 09:00-20:00', '']",Стрежевой,"Стрежевой, ул. Коммунальная, д.53",77.581104,60.72834,654,,,
"[1, 2, 4, 8, 16, 32, 64, 128, 256, 2048, 8192, 16384, 131072, 262144, 33554432]",S245,"['', 'ПН-ВС 09:00-19:00', '', '']",Стрежевой,"Стрежевой, 1 микрорайон, д.124",77.603059,60.729326,654,True,,
"[1, 2, 4, 8, 16, 32, 128, 256, 1024, 2048, 4096, 8192, 16384, 262144]",F572,"['', 'ПН-ВС 10:00-21:00', '', '']",Озерки,"Санкт-Петербург, пр-т Энгельса, д.120 лит.А",30.321204,60.036537,619,True,,233713.0
"[1, 2, 4, 8, 16, 32, 128, 256, 1024, 2048, 4096, 8192, 16384, 262144]",G471,"['', '', 'ПН-ВС 09:00-21:00', '']",Озерки,"Санкт-Петербург, пр-т Художников, д.возле д.15/1",30.34668,60.038429,619,True,,233713.0
"[1, 2, 4, 8, 16, 32, 128, 256, 2048, 8192, 16384, 131072, 262144]",Z147,"['', 'ПН-СБ 10:30-20:00, ВС 11:30-19:00', '', '']",Озерки,"Санкт-Петербург, Художников пр-т, д.16/1А",30.346447,60.040762,619,True,,233713.0
"[1, 2, 4, 8, 16, 32, 128, 256, 1024, 2048, 4096, 8192, 16384, 131072, 262144]",Z583,"['', 'ПН-ВС 09:00-21:00', '', '']",Озерки,"Санкт-Петербург, пр-т Энгельса, д.111",30.32433,60.036811,619,True,,233713.0
"[1, 4, 8, 67108864]",BE06_fr,"['', 'ПН-ПТ 10:00-20:00, СБ, ВС 10:00-20:00', '', '']",Магадан,"Магадан, ул. Кольцевая, д.3",150.8309,59.551879,609,,,
"[1, 2, 4, 8, 16, 32, 64, 128, 256, 512, 2048, 8192, 16384, 131072, 262144, 524288, 33554432]",D085,"['', 'ПН-ПТ 09:00-20:00, СБ-ВС 10:00-20:00', '', '']",Магадан,"Магадан, ул. Гагарина, д.9",150.805244,59.556945,609,True,True,
"[1, 2, 4, 8, 16, 32, 64, 128, 256, 2048, 8192, 16384, 131072, 262144, 33554432]",D130,"['', 'ПН-ПТ 09:00-20:00, СБ-ВС 10:00-20:00', '', '']",Магадан,"Магадан, Карла Маркса ул., д.36/20",150.802954,59.564431,609,True,,
"[1, 2, 4, 8, 16, 32, 64, 128, 256, 2048, 8192, 16384, 131072, 262144, 33554432]",D158,"['', 'ПН-ВС 09:00-20:00', '', '']",Магадан,"Магадан, ул. Гагарина, д.23",150.811746,59.551459,609,True,,
"[1, 2, 4, 8, 16, 32, 64, 128, 256, 2048, 8192, 16384, 262144, 33554432]",G323,"['', '', 'ПН-ПТ 09:00-19:00, СБ-ВС 10:00-19:00', '']",Магадан,"Магадан, ул. Пролетарская, д.19",150.814407,59.565196,609,True,,
"[1, 2, 4, 8, 16, 32, 64, 128, 256, 2048, 8192, 16384, 33554432]",H631,"['', '', 'ПН-ВС 09:00-20:00', '']",Магадан,"Магадан, Колымское шоссе, д.6",150.817695,59.575387,609,,,
"[1, 4, 8, 67108864]",P027_fr,"['', 'ПН-ПТ 10:00-20:00, СБ, ВС 10:00-20:00', '', '']",Магадан,"Магадан, пр-т Ленина, д.3",150.8081,59.558415,609,,,
"[1, 2, 4, 8, 16, 32, 64, 128, 256, 1024, 2048, 4096, 8192, 16384, 262144, 33554432]",E445,"['', '', 'ПН-ВС 09:15-20:45', '']",Самара,"Самара, ул. Георгия Димитрова, д.7",50.238875,53.251428,630,True,,
"[1, 2, 4, 8, 16, 32, 64, 128, 256, 1024, 2048, 4096, 8192, 16384, 65536, 262144, 33554432]",E448,"['', '', 'ПН-ВС 10:00-21:45', '']",Самара,"Самара, Южное ш., д.5",50.173675,53.14038,630,True,,
"[1, 2, 4, 8, 16, 32, 64, 128, 256, 1024, 2048, 4096, 8192, 16384, 262144, 33554432]",E631,"['', 'ПН-ПТ 09:00-21:00, СБ-ВС 09:00-20:00', '', '']",Самара,"Самара, ул. Пензенская, д.52 А",50.141713,53.191902,630,True,,
"[1, 2, 4, 8, 16, 32, 64, 128, 256, 1024, 2048, 4096, 8192, 16384, 65536, 262144, 33554432]",E668,"['', 'ПН-ВС 10:00-21:45', '', '']",Самара,"Самара, Московское ш., д.185 А",50.220585,53.248745,630,True,,
"[1, 2, 4, 8, 16, 32, 64, 128, 256, 1024, 2048, 4096, 8192, 16384, 262144, 33554432]",F028,"['', '', 'ПН-ВС 09:00-21:00', '']",Самара,"Самара, пр-т Металлургов, д.90",50.278284,53.237515,630,True,,
"[1, 2, 4, 8, 16, 32, 64, 128, 256, 1024, 2048, 4096, 8192, 16384, 33554432]",G769,"['', 'ПН-ВС 09:00-21:15', '', '']",Самара,"Самара, ул. Авроры, д.92 А",50.190285,53.191816,630,,,
"[1, 2, 4, 8, 16, 32, 64, 128, 256, 1024, 2048, 4096, 8192, 16384, 33554432]",G850,"['', '', 'ПН-ВС 09:00-21:00', '']",Самара,"Самара, Московское ш., д.4, корп.15",50.147112,53.203554,630,,,
"[1, 2, 4, 8, 16, 32, 64, 128, 256, 1024, 2048, 4096, 8192, 16384, 33554432]",G978,"['', 'ПН-ВС 09:00-21:00', '', '']",Самара,"Самара, ул. Ново-Вокзальная ул/ Победы",50.248595,53.212406,630,,,
"[1, 2, 4, 8, 16, 32, 64, 128, 256, 1024, 2048, 4096, 8192, 16384, 33554432]",H329,"['', 'ПН-ВС 10:00-22:00', '', '']",Самара,"Самара, ул. Аэродромная, д.47А, литер А",50.189773,53.190925,630,,,
"[1, 2, 4, 8, 16, 32, 64, 128, 256, 1024, 2048, 4096, 8192, 16384, 33554432]",H563,"['', '', 'ПН-ВС 10:00-22:00', '']",Самара,"Самара, 24 км Московское шоссе, д.5",50.305359,53.325718,630,,,
"[1, 2, 4, 8, 16, 32, 64, 128, 256, 1024, 2048, 4096, 8192, 16384, 33554432]",H579,"['', 'ПН-ВС 10:00-21:45', '', '']",Самара,"Самара, ул. Дыбенко, д.30",50.197903,53.207389,630,,,
"[1, 2, 4, 8, 16, 32, 64, 128, 256, 1024, 2048, 4096, 8192, 16384, 33554432]",H636,"['', 'ПН-ВС 09:00-21:00', '', '']",Самара,"Самара, ул. Спортивная, д.3-5",50.122301,53.187246,630,,,
"[1, 2, 4, 8, 16, 32, 64, 128, 256, 1024, 2048, 4096, 8192, 16384, 33554432]",H730,"['', 'ПН-ВС 09:00-21:00', '', '']",Самара,"Самара, ул. Ташкентская, д.около дома 97",50.25191,53.246595,630,,,
"[1, 2, 4, 8, 16, 32, 64, 128, 256, 1024, 2048, 4096, 8192, 16384, 33554432]",H758,"['', '', 'ПН-ВС 09:00-21:00', '']",Самара,"Самара, пр-т Кирова, д.226 Б",50.231464,53.243481,630,,,
"[1, 2, 4, 8, 16, 32, 64, 128, 256, 1024, 2048, 4096, 8192, 16384, 33554432]",H837,"['', 'ПН-ВС 10:00-22:00', '', '']",Самара,"Самара, ул. Кирова, д.147",50.263004,53.220568,630,,,
"[1, 2, 4, 8, 16, 32, 64, 128, 256, 1024, 2048, 4096, 8192, 16384, 65536, 131072, 262144, 33554432]",P014,"['', 'ПН-ВС 10:00-21:45', '', '']",Самара,"Самара, ул. Дыбенко, д.30",50.197903,53.207389,630,True,,
"[1, 2, 4, 8, 16, 32, 64, 128, 256, 1024, 2048, 4096, 8192, 16384, 131072, 262144, 33554432]",P042,"['', 'ПН-ВС 09:00-21:00', '', '']",Самара,"Самара, пр-т Кирова, д.возле д.46",50.262932,53.218255,630,True,,
"[1, 2, 4, 8, 16, 32, 64, 128, 256, 1024, 2048, 4096, 8192, 16384, 131072, 262144, 33554432]",P043,"['', 'ПН-ВС 09:00-21:00', '', '']",Самара,"Самара, ул. Георгия Димитрова ул/Молодежная, д.рынок Шапито",50.22134,53.257338,630,True,,
"[1, 2, 4, 8, 16, 32, 64, 128, 256, 1024, 2048, 4096, 8192, 16384, 131072, 262144, 33554432]",P369,"['', '', 'ПН-ВС 09:00-21:00', '']",Самара,"Самара, ул. Сергея Лазо, д.17а",50.217882,53.345672,630,True,,
"[1, 2, 4, 8, 16, 32, 64, 128, 256, 1024, 2048, 4096, 8192, 16384, 131072, 262144, 33554432]",P371,"['', 'ПН-ВС 09:00-21:00', '', '']",Самара,"Самара, ул. Антонова-Овсеенко, д.3",50.191489,53.211363,630,True,,
"[1, 2, 4, 8, 16, 32, 64, 128, 256, 2048, 8192, 16384, 131072, 262144, 33554432]",P373,"['', '', 'ПН-ВС 08:00-20:00', '']",Самара,"Самара, ул. Венцека, д.41",50.088803,53.185093,630,True,,
"[1, 2, 4, 8, 16, 32, 64, 128, 256, 2048, 8192, 16384, 131072, 262144, 33554432]",P375,"['', 'ПН-СБ 09:00-19:30, ВС 09:00-18:30', '', '']",Самара,"Самара, ул. Вилоновская, д.138",50.123972,53.192932,630,True,,
"[1, 2, 4, 8, 16, 32, 64, 128, 256, 1024, 2048, 4096, 8192, 16384, 65536, 131072, 262144, 33554432]",P378,"['', 'ПН-ВС 10:00-22:00', '', '']",Самара,"Самара, Московское ш., д.81 Б",50.200966,53.233279,630,True,,
"[1, 2, 4, 8, 16, 32, 64, 128, 256, 1024, 2048, 4096, 8192, 16384, 65536, 131072, 262144, 33554432]",P381,"['', 'ПН-ВС 09:00-20:45', '', '']",Самара,"Самара, ул. Ново-Садовая, д.305 А",50.191175,53.236502,630,True,,
"[1, 2, 4, 8, 16, 32, 64, 128, 256, 512, 1024, 2048, 4096, 8192, 16384, 131072, 262144, 524288, 33554432]",P388,"['', '', 'ПН-ВС 09:00-21:00', '']",Самара,"Самара, ул. Фрунзе, д.93/42",50.091812,53.187683,630,True,True,
"[1, 2, 4, 8, 16, 32, 64, 128, 256, 1024, 2048, 4096, 8192, 16384, 131072, 262144, 33554432]",P487,"['', '', 'ПН-ВС 09:00-21:00', '']",Самара,"Самара, ул. Стара-Загора, д.58а, напротив ТК Шипка",50.208952,53.229969,630,True,,
"[1, 2, 4, 8, 16, 32, 64, 128, 256, 1024, 2048, 4096, 8192, 16384, 131072, 262144, 33554432]",P523,"['', 'ПН-ВС 09:00-21:00', '', '']",Самара,"Самара, Ленина пр-т, д.3",50.139989,53.209265,630,True,,
"[1, 2, 4, 8, 16, 32, 64, 128, 256, 2048, 8192, 16384, 131072, 262144, 33554432]",P524,"['', '', 'ПН-ВС 09:00-20:00', '']",Самара,"Самара, ул. Галактионовская, д.36",50.097444,53.185465,630,True,,
"[1, 2, 4, 8, 16, 32, 64, 128, 256, 1024, 2048, 4096, 8192, 16384, 131072, 262144, 33554432]",P525,"['', 'ПН-ВС 09:00-21:00', '', '']",Самара,"Самара, ул. Победы, д.83",50.240411,53.208732,630,True,,
"[1, 2, 4, 8, 16, 32, 64, 128, 256, 2048, 8192, 16384, 131072, 262144, 33554432]",P546,"['', '', 'ПН-ВС 08:00-20:00', '']",Самара,"Самара, Пугачевский, д.возле д.19 А",50.088147,53.121491,630,True,,
"[1, 2, 4, 8, 16, 32, 64, 128, 256, 1024, 2048, 4096, 8192, 16384, 262144, 33554432]",P805,"['', 'ПН-ВС 09:15-20:45', '', '']",Самара,"Самара, ул. Ново-Садовая, д.106",50.148972,53.217187,630,True,,
"[1, 4, 8, 2048, 67108864]",Y540_fr,"['', 'ПН-ВС 09:00-20:00', '', '']",Самара,"Самара, ул. Ново-Вокзальная, д.219 Б",50.21083,53.242716,630,,,
"[1, 2, 4, 8, 16, 32, 128, 256, 512, 2048, 8192, 16384, 131072, 262144, 524288]",D089,"['', 'ПН-ВС 10:00-20:00', '', '']",Петропавловск-Камчатский,"Петропавловск-Камчатский, Космический пр, д.3 А",158.662646,53.055689,646,True,True,
"[1, 2, 4, 8, 16, 32, 64, 128, 256, 2048, 8192, 16384, 131072, 262144, 33554432]",D131,"['', '', 'ПН-ВС 10:00-20:00', '']",Петропавловск-Камчатский,"Петропавловск-Камчатский, пр-т 50 лет Октября, д.35",158.631538,53.057416,646,True,,
"[1, 2, 4, 8, 16, 32, 128, 256, 2048, 8192, 16384, 131072, 262144]",D135,"['', '', 'ПН-ПТ 09:00-19:00, СБ-ВС 10:00-19:00', '']",Петропавловск-Камчатский,"Петропавловск-Камчатский, ул. Океанская, д.121/2",158.680631,52.982154,646,True,,
"[1, 2, 4, 8, 16, 32, 128, 256, 2048, 8192, 16384, 65536, 131072, 262144]",D164,"['', 'ПН-ВС 10:00-20:00', '', '']",Петропавловск-Камчатский,"Петропавловск-Камчатский, пр-т Победы, д.63 А",158.59212,53.071117,646,True,,
"[1, 4, 8, 2048, 67108864]",DE11_fr,"['', '', 'ПН-СБ 10:00-20:00, ВС 10:00-19:00', '']",Петропавловск-Камчатский,"Петропавловск-Камчатский, ул. Пограничная, д.1/1",158.659359,53.036498,646,,,
"[1, 2, 4, 8, 16, 32, 128, 256, 2048, 8192, 16384]",G818,"['', 'ПН-ВС 10:00-20:00', '', '']",Петропавловск-Камчатский,"Петропавловск-Камчатский, ул. Лукашевского, д.5",158.634206,53.059072,646,,,
"[1, 2, 4, 8, 16, 32, 128, 256, 2048, 8192, 16384]",G872,"['', 'ПН-ВС 10:00-20:00', '', '']",Петропавловск-Камчатский,"Петропавловск-Камчатский, ул. Ленинградская, д.49",158.654903,53.03652,646,,,
"[1, 4, 8, 67108864]",S873_fr,"['', 'ПН-СБ 9:00-20:00, ВС 10:00-19:00', '', '']",Петропавловск-Камчатский,"Петропавловск-Камчатский, ул. 50 Лет Октября, д.13",158.638015,53.054125,646,,,
"[1, 4, 8, 1024, 2048, 67108864]",Y092_fr,"['', '', 'ПН-ВС 10:00-21:00', '']",Петропавловск-Камчатский,"Петропавловск-Камчатский, ул. Вулканная, д.59",158.6206,53.0826,646,,,
"[1, 2, 4, 8, 16, 32, 128, 256, 1024, 2048, 4096, 8192, 16384, 262144]",G037,"['', 'ПН-ВС 09:00-21:00', '', '']",Нижнекамск,"Нижнекамск, ул. Баки Урманче, д.15",51.810657,55.639359,612,True,,
"[1, 2, 4, 8, 16, 32, 128, 256, 1024, 2048, 4096, 8192, 16384]",G878,"['', '', 'ПН-ВС 09:00-21:00', '']",Нижнекамск,"Нижнекамск, ул. Корабельная, д.42",51.789457,55.629526,612,,,
"[1, 2, 4, 8, 16, 32, 128, 256, 512, 1024, 2048, 4096, 8192, 16384, 131072, 262144, 524288]",P511,"['', '', 'ПН-ВС 09:00-21:00', '']",Нижнекамск,"Нижнекамск, ул. 30 лет Победы, д.12/19",51.797749,55.632286,612,True,True,
"[1, 2, 4, 8, 16, 32, 128, 256, 2048, 8192, 16384, 131072, 262144]",P698,"['', '', 'ПН-ВС 08:00-20:00', '']",Нижнекамск,"Нижнекамск, пр-т Строителей, д.2Ж",51.818841,55.624332,612,True,,
"[1, 2, 4, 8, 16, 32, 128, 256, 1024, 2048, 4096, 8192, 16384, 131072, 262144]",P711,"['', 'ПН-ВС 09:00-21:00', '', '']",Нижнекамск,"Нижнекамск, пр-т Химиков, д.49",51.808645,55.635447,612,True,,
"[1, 2, 4, 8, 16, 32, 64, 128, 256, 2048, 8192, 16384, 262144, 33554432]",D920,"['', '', 'ПН-ВС 10:00-19:00', '']",Братск,"Братск, ТЦ ""Русич""",101.882288,56.281092,635,True,,
"[1, 2, 4, 8, 16, 32, 64, 128, 256, 2048, 8192, 16384, 262144, 33554432]",F027,"['', 'ПН-ВС 09:00-20:00', '', '']",Братск,"Братск, ул. Наймушина, д.2",101.750241,56.310288,635,True,,
"[1, 2, 4, 8, 16, 32, 64, 128, 256, 512, 1024, 2048, 4096, 8192, 16384, 65536, 131072, 262144, 524288, 33554432]",S046,"['', '', 'ПН-ВС 09:00-21:00', '']",Братск,"Братск, ул. Советская, д.7",101.6392,56.150464,635,True,True,
"[1, 2, 4, 8, 16, 32, 64, 128, 256, 2048, 8192, 16384, 65536, 131072, 262144, 33554432]",S067,"['', '', 'ПН-ВС 09:00-19:00', '']",Братск,"Братск, ул. Рябикова, корп.р-н рынка «Багульник»",101.608682,56.17554,635,True,,
"[1, 2, 4, 8, 16, 32, 64, 128, 256, 1024, 2048, 4096, 8192, 16384, 131072, 262144, 33554432]",S071,"['', 'ПН-ВС 09:00-21:00', '', '']",Братск,"Братск, ул. Кирова, д.16/30",101.623875,56.154806,635,True,,
"[1, 2, 4, 8, 16, 32, 64, 128, 256, 2048, 8192, 16384, 262144, 33554432]",E154,"['', '', '', 'ПН-ВС 09:00-19:30']",Брянск,"Брянск, ул. Красноармейская, д.100",34.34677,53.240323,629,True,,
"[1, 2, 4, 8, 16, 32, 64, 128, 256, 1024, 2048, 4096, 8192, 16384, 65536, 262144, 33554432]",E389,"['', 'ПН-ВС 10:00-21:00', '', '']",Брянск,"Брянск, пр-т Московский, д.49",34.422211,53.21647,629,True,,
"[1, 2, 4, 8, 16, 32, 64, 128, 256, 2048, 8192, 16384, 262144, 33554432]",E562,"['', '', 'ПН-ВС 09:00-20:00', '']",Брянск,"Брянск, ул. Авиационная, д.5, корп.А",34.32469,53.260489,629,True,,
"[1, 2, 4, 8, 16, 32, 64, 128, 256, 2048, 8192, 16384, 262144, 33554432]",E585,"['', 'ПН-ВС 09:00-20:00', '', '']",Брянск,"Брянск, ул. 2-я Мичурина, д.рядом с ТЦ ""МБ""",34.439999,53.256692,629,True,,
"[1, 2, 4, 8, 16, 32, 64, 128, 256, 2048, 8192, 16384, 65536, 262144, 33554432]",E755,"['', '', 'ПН-ВС 10:00-20:00', '']",Брянск,"Брянск, ул. Объездная, д.30",34.315877,53.275477,629,True,,
"[1, 2, 4, 8, 16, 32, 64, 128, 256, 2048, 8192, 16384, 131072, 262144, 33554432]",H022,"['', '', 'ПН-ВС 09:00-19:30', '']",Брянск,"Брянск, ул. Тельмана, д.68 А",34.449529,53.251256,629,True,,
"[1, 2, 4, 8, 16, 32, 64, 128, 256, 1024, 2048, 4096, 8192, 16384, 65536, 131072, 262144, 33554432]",H076,"['', 'ПН-ВС 09:00-21:00', '', '']",Брянск,"Брянск, Ульянова, д.49",34.307981,53.313024,629,True,,
